osm_type,osm_id,name,name_en,name_ru,name_ky,elevation_m,lat,lon,prominence,wikidata,wikipedia
node,274275911,Jengish Chokusu,Jengish Chokusu,Пик Победы,Жеңиш чокусу,7439,42.0350156,80.1295134,4145,Q332762,zh:托木尔峰
node,2117818681,Обелиск,,Обелиск,Обелиск чокусу,7200,42.0383247,80.1071531,,,
node,3800709736,Abu Ali Ibn Sino,Abu Ali Ibn Sino,,,7134,39.3436698,72.8779256,2804,,
node,349008747,Lenin Peak,Lenin Peak,пик Ленина,Ленин Чокусу,7128,39.3470691,72.879123,,Q838587,ru:Пик Ленина
node,3986092540,Ozodi Peak,Ozodi Peak,Пик Корженевской,,7105,39.0568831,72.0096829,1605,Q545239,tg:Қуллаи Озодӣ
node,2117690354,Khan Tengri,Khan Tengri,Хан-Тенгри,Хан-Теңири,7010,42.2108108,80.175012,1810,Q211529,ky:Хан-Теңири
node,3541044736,聂鲁峰 Важа Пшавела,,,,6918,42.0450102,80.0808102,,,
node,11913670593,Пик Корженевской Южный,,Пик Корженевской Южный,,6909,39.0524416,72.0169002,,,
node,2588407036,Military topographers peak,Military topographers peak,пик Военных Топографов,Аскер топографтары чокусу,6873,42.0537397,80.2497741,,Q20621898,ky:Аскер топографтары чокусу
node,2117818451,Советской Армении,,Советской Армении,,6850,42.0350189,80.1508553,,,
node,3802006428,пик Маршала Жукова,,,,6842,39.3182831,72.8853561,,Q89030970,
node,2588407037,Военных Топографов Западная,,Военных Топографов Западная,,6816,42.0534353,80.2424883,,,
node,10223838596,Рапасова Западная,,Рапасова Западная,,6814,42.0657303,80.2840519,,,
node,10223838600,Рапасова,,,,6814,42.0625083,80.2946198,,,
node,4547084709,Friendship peak,Friendship peak,пик Дружба,Достук чокусу,6800,42.1224247,80.2674895,,Q20625338,ky:Достук чокусу
node,2439724999,Октябрьский пик,,,,6780,39.329562,72.9704247,,,
node,12379337674,Chulebos,Chulebos,Кюэлебоси,,6769,42.2341752,80.3655643,,,
node,2117818531,Восточный пик Победы,,Восточный пик Победы,,6762,42.0373737,80.198031,,,
node,12379337467,Рапасова Южная,,Рапасова Южная,,6747,42.0504312,80.2941792,,,
node,349008762,пик Дзержинского,,,,6717,39.3464949,72.7838015,,Q23560672,
node,10223838611,Рапасова Центральная,,,,6710,42.0543475,80.2933324,,,
node,3790487905,,,,,6705,39.3404026,72.7760416,,,
node,2117819222,Неру,,Неру,,6701,42.0491934,80.0441347,,,
node,2552011452,Unity Peak,Unity Peak,,,6690,39.3492163,72.9567075,,,
node,5607882246,Kyzylagyn,Kyzylagyn,,,6683,39.3476914,73.0434342,,Q25379625,
node,2117690370,Eastern Shatyr,Eastern Shatyr,Восточный Шатёр,,6637,42.2192248,80.2507981,,,
node,349008657,Kurumdy Mountain,Kurumdy Mountain,Гора Курумды,,6614,39.4561142,73.567406,2332,Q5584351,en:Kurumdy Mountain
node,6033766802,Тухачевского,,,,6612,39.0692476,72.1311758,,,
node,10223838586,Нагела,,Нагела,,6565,42.1058333,80.2613333,,,
node,4897507960,Kurumdy West South,Kurumdy West South,,,6558,39.4602025,73.5405921,,,
node,4567015357,Kurumdy West North,Kurumdy West North,,,6554,39.4619957,73.5429418,,,
node,5607880809,Карпинского,,,,6552,39.0565091,72.1392275,,,
node,2117818840,Памяти экипажа «Союза-10»,,,,6537,42.0416838,80.0057472,,,
node,10223838534,Погребецкого,,Погребецкого,,6527,42.1204887,80.2410346,,,
node,10223838501,Western Shatyr,Western Shatyr,Западный Шатёр,,6511,42.2166553,80.2285302,,,
node,3986092225,пик Калинина,,,,6509,39.0105923,72.1092809,,Q31473560,
node,12379337663,,,,,6480,42.2190868,80.4764306,,,
node,12379337671,,,,,6480,42.2274846,80.40591,,,
node,12379337669,,,,,6470,42.2263565,80.434953,,,
node,6033766804,Карпинского Северо-Западный,,Карпинского Северо-Западный,,6441,39.0616826,72.132411,,,
node,5605660290,пик Кашкар,,пик Кашкар,,6435,41.8861806,80.1344139,,,
node,10223838588,Южное плечо пика Нагела,,,,6415,42.0967198,80.2591851,,,
node,10223838532,Погребецкого Центральная,,,,6410,42.1215833,80.23525,,,
node,12379337666,,,,,6390,42.2207632,80.4500484,,,
node,349019516,Kurumdy East I,Kurumdy East I,,,6384,39.4596729,73.6002746,,,en:Kurumdy Mountain
node,10218619992,пик Чапаева,,пик Чапаева,Чапаев чокусу,6371,42.1991799,80.1383167,,,
node,13602408403,Погребецкого Западная,,,,6370,42.1200791,80.2299686,,,
node,2117848611,Zarya-Vostoka,Zarya-Vostoka,Пик Заря Востока,,6349,39.4692159,73.6527624,,Q25379636,de:Pik Sarja Wostoka
node,10223838572,Тореза,,Тореза,,6320,42.1621628,80.2610063,,,
node,2501236151,Музджилга,,Музджилга,,6289,39.1195731,72.1915269,,,
node,2118060415,Pik Chorku,Pik Chorku,,,6283,39.4679054,73.521173,,,
node,13275914456,Grudzinsky,Grudzinsky,Грудзинского Михаила,,6273,42.2566898,80.286659,,,
node,2117848353,Kurumdy East II,Kurumdy East II,,,6259,39.4619501,73.612926,,,
node,2117818748,САВО,,САВО,,6241,42.0409365,79.9699753,,,
node,10602359827,Тухачевского Восточный,,Тухачевского Восточный,,6241,39.071133,72.1384834,,,
node,2117690408,Przhevalsky,Przhevalsky,Пржевальского,,6240,42.23507,80.2841689,,,
node,13534800938,,,,,6237,42.0874606,80.2683073,,,
node,6033766811,Якира,,Якира,,6232,39.0544289,72.1260396,,,
node,2117819261,Западное плечо пика Военных Топографов,,Западное плечо пика Военных Топографов,,6230,42.0633243,80.2283133,,,
node,3986092251,Пик Четырех,,,,6230,39.0226229,72.0582673,,,
node,2593146273,гора Будунсельтау,,гора Будунсельтау,,6220,39.124385,74.6874839,,,
node,2439749778,Latvia Peak,Latvia Peak,Пик Латвия,,6218,39.3626637,73.0049443,,Q16362063,
node,349008663,Pik Turk VO,Pik Turk VO,,,6216,39.4681374,73.4929508,,,
node,2117819091,Дыбенко,,,,6215,42.0457622,79.9779354,,,
node,10223838566,Зорге,,Зорге,,6210,42.1899475,80.2675509,,,
node,2117690415,100-летия РГО,,100-летия РГО,,6208,42.2443761,80.2849843,,,
node,5167701814,пик Жукова,,пик Жукова,,6208,39.0048951,72.119944,,,
node,5607880802,пик Уборевича,,пик Уборевича,,6207,39.096234,72.145464,,,
node,2439784982,Estonia Peak,Estonia Peak,Пик Эстония,,6202,39.3573879,72.9854286,,,
node,2117819287,1000th anniversary of the Baptism of Rus',1000th anniversary of the Baptism of Rus',1000-летия Крещения Руси,Рус чөмүлтүлгөнүнүн 1000 жылдыгы,6201,42.0865833,80.1878333,,,
node,12385459914,,,,,6201,42.2080284,80.2232676,,,
node,2439785005,пик Cпартак,,,,6183,39.3707751,72.9393014,,,
node,2117819488,Aktau peak,Aktau peak,пик Актау,Актау чокусу,6181,42.112,80.159,,,
node,2439724803,,,,,6162,39.3268285,72.8352785,,,
node,2117690420,100-летия РГО Северная,,,,6150,42.2483526,80.2800856,,,
node,1049248544,Раздельная,,Раздельная,,6148,39.3627874,72.8276405,,,
node,2117690481,Marble Wall,Marble Wall,Мраморная Стена,,6146,42.2824018,80.2684708,,,
node,2593035838,Mount Aksay,Mount Aksay,гора Аксайбаш,,6146,39.2732584,74.2610852,,,
node,6033766795,Днепропетровск,,Днепропетровск,,6123,39.1051382,72.134707,,,
node,10218620002,Петьки,,Петьки,,6120,42.2172989,80.1465457,,,
node,2117690437,8 female climbers,8 female climbers,8-ми альпинисток,,6110,42.2706078,80.2844759,,,
node,10253538400,,,,,6110,39.0467151,72.0378776,,,
node,2593036049,,,,,6084,39.2635147,74.3251707,,,
node,2117818364,Pik Kirova,Pik Kirova,пик Кирова,,6073,42.0345,79.8845,,Q25378979,
node,5607880804,Сандал,,,,6072,39.115974,72.218842,,,
node,5607881652,пик Белеули,,,,6065,39.1734333,72.7658889,,,
node,10223838556,Валиханова,,Валиханова,,6060,42.1617016,80.2493548,,,
node,10218619965,пик Максима Горького,,пик Максима Горького,,6050,42.1858376,80.0874245,,,
node,13515923923,,,,,6041,42.2192376,80.1882917,,,
node,2593035977,,,,,6026,39.2340592,74.5143764,,,
node,5607882249,пик Эйлера,,,,6022,39.4635,73.7018333,,,ru:Пик Эйлера
node,2117690386,,,,,6021,42.2239731,80.1893377,,,
node,10223838569,Снежная сказка,,Снежная сказка,,6020,42.1750131,80.2660918,,,
node,5607882245,пик Корженевского,,,,6008,39.3698844,73.1214659,,Q27203387,
node,4897507957,Pik Markansu,Pik Markansu,,,6000,39.448323,73.488214,,,
node,3676270211,пик Красина,,,,5999,39.3712153,72.7477097,,Q27203379,
node,2593146284,,,,,5998,39.1617518,74.7242263,,,
node,8926032546,Pik Dankova,Pik Dankova,Пик Данкова,,5982,41.0601764,77.6858053,2675,Q20625014,
node,5605660291,пик Визбора,,пик Визбора,Визбор чокусу,5960,41.9900556,80.2161111,,,
node,5604553748,Космос,,,,5957,41.0071776,77.615382,,,
node,2596899124,,,,,5954,39.1872719,74.6618446,,,
node,2439758751,пик XIX съезда КПСС,,,,5945,39.4045729,72.9656233,,,
node,2593146290,,,,,5940,39.1636219,74.6894003,,,
node,6033766565,Комсомольской Правды,,Комсомольской Правды,,5940,39.1198253,72.2068814,,,
node,10218619986,пик Евгения Абалакова,,пик Евгения Абалакова,,5940,42.2017074,80.1145684,,,
node,10223838520,,,,,5940,42.0913041,80.2336693,,,
node,2593035846,гора Чонг-Сельтау,,гора Чонг-Сельтау,,5925,39.2540745,74.387695,,,
node,2593036027,,,,,5919,39.2554084,74.3497529,,,
node,4567015359,,,,,5917,39.4645427,73.4664774,,,
node,2118060048,库木别勒木孜套,,,,5909,39.1216388,73.70656,,,
node,2593146263,,,,,5906,39.0961649,74.7309588,,,
node,2588407045,пик Ауэзова,,пик Ауэзова,,5900,42.1213092,80.1681381,,,
node,5607881838,Сат,,,,5900,39.236048,71.910301,2300,Q25379640,
node,5607880336,пик Тиндаля,,,,5895,39.0144698,71.5357415,,,
node,2589812582,,,,,5892,41.9980842,79.9982773,,,
node,6033766817,Блюхера,,,,5890,39.0440151,72.1375605,,,
node,2593146243,,,,,5882,39.0668545,74.7786736,,,
node,5607880144,Pik Agasis,Pik Agasis,,,5877,39.0140034,71.5038005,1610,Q8553109,
node,2117818685,,,,,5870,42.0400066,79.9291796,,,
node,2593146248,,,,,5870,39.0781183,74.8002849,,,
node,3791151123,пик Адлерхорн,,,,5868,39.1965257,72.6940844,,,
node,5169166829,пик Бабушкина,,,,5867,39.0876734,71.9735383,,,
node,9647524760,Yan Dongdong Feng,Yan Dongdong Feng,,,5861,42.0535868,80.392121,,,
node,2593036054,,,,,5860,39.2640316,74.2703496,,,
node,10223837925,пик Петровского,,пик Петровского,,5860,42.1877928,79.9627104,,,
node,2593035879,,,,,5854,39.1994917,74.5968451,,,
node,3676271134,пик Цурюпы,,,,5849,39.3838724,72.7172304,,,
node,2593035881,гора Киякмунчитау,,гора Киякмунчитау,,5847,39.2037724,74.6223025,,,
node,2593035898,,,,,5847,39.211216,74.5580184,,,
node,5943269800,ВМФ,,,,5842,39.3729404,73.1030273,,,
node,5605661202,Баянкол,,Баянкол,Баянкол,5841,42.2843076,80.1753875,,,
node,5607881677,Урицкого,,,,5841,39.0290944,72.8646111,,,
node,2118060051,,,,,5840,39.1292558,73.7082013,,,
node,2117690396,Saladin,Saladin,Саладина,,5830,42.2288272,80.2034569,,,
node,2412187385,,,,,5827,39.0584101,73.8194213,,,
node,2593035989,,,,,5824,39.2383862,74.4823467,,,
node,2626443342,пик Красных Командиров,,пик Красных Командиров,,5821,39.276885,73.5366167,,,
node,2117838409,Рототаева,,,,5820,41.0093812,77.6069652,,,
node,5607880800,Шильбе,,Шильбе,,5820,39.1207009,72.2480949,,,
node,349005227,Semyonov,Semyonov,Семёнова,Семёнов,5816,42.2763702,80.118209,,Q4362539,
node,3149076855,пик Сулоева,,пик Сулоева,,5816,39.0182113,71.8679957,,,
node,2118060170,Kon-Chukurbashi,Kon-Chukurbashi,гора Кон-чукурбаши,,5811,39.2493876,73.5592849,,,
node,2117819291,,,,,5810,42.0983063,80.1679461,,,
node,3149076967,пик Крупской,,пик Крупской,,5808,39.0085483,71.8113551,,,
node,2589812571,,,,,5806,41.9745989,79.8782337,,,
node,2593036007,,,,,5803,39.2448453,74.4175831,,,
node,2117848928,Pik Leibniz,Pik Leibniz,,,5797,39.4832414,73.8743953,,,
node,2593146281,,,,,5784,39.1477915,74.724915,,,
node,5605661213,,,,,5784,42.0600148,79.7792432,,,
node,2118060169,,,,,5775,39.2500558,73.5650904,,,
node,5607880801,пик Черепанова,,пик Черепанова,,5774,39.0358833,72.2390778,,,
node,2593146260,,,,,5770,39.093715,74.7872331,,,
node,10223838405,Казахстан,,Казахстан,Казакстан,5761,42.2830712,80.2072562,,,
node,5196780820,Мушкетова,,,,5760,39.0749103,72.0613861,,,
node,2118060039,,,,,5753,39.111942,73.7207398,,,
node,10223838552,Эдельвейс,,Эдельвейс,,5740,42.1572956,80.2304721,,,
node,5605661250,Красной Армии,,Красной Армии,Кызыл Армия,5736,42.074847,79.850003,,,
node,2117819283,,,,,5730,42.0741,80.2082388,,,
node,3791151146,пик Снежный,,,,5730,39.2084329,72.7127895,,,
node,7077078687,Пик Лейпциг,,Пик Лейпциг,,5725,39.3487301,72.47803,,,de:Pik Leipzig
node,3292066658,пик Шокальского,,пик Шокальского,Шокальский чокусу,5722,42.1047764,79.8281587,,Q19298601,de:Pik Schokalskowo
node,2626958759,,,,,5716,39.0857276,73.6945172,,,
node,4922304886,Пик Воробьева,,,,5710,39.0058443,72.0196005,,,
node,2593035927,,,,,5700,39.2212207,74.5330448,,,
node,3149076965,Шапак,,Шапак,,5700,39.0365321,71.7917293,,,
node,5022792998,,,,,5700,39.0004887,71.9531375,,,
node,3299276604,Nansen peak,Nansen peak,Пик Нансена,Нансен чокусу,5697,42.1499102,79.6307996,,Q13171844,ky:Нансен чокусу
node,2626958739,,,,,5691,39.0722941,73.815818,,,
node,2439785037,30-летия УзССР,,30-летия УзССР,,5688,39.3867108,72.825231,,,
node,2118060013,,,,,5683,39.0815818,73.7114749,,,
node,2626958773,,,,,5680,39.101458,73.6733102,,,
node,10769928798,ГОЭЛРО,,,,5675,41.0560167,77.6952494,,,
node,2118060029,,,,,5671,39.0966088,73.7173618,,,
node,2626958785,,,,,5670,39.1185285,73.7551851,,,
node,2118059955,,,,,5667,39.0418881,73.7904738,,,
node,10223838548,Открытий,,Открытий,,5664,42.1552504,80.2167183,,,
node,2593035895,,,,,5663,39.2103863,74.58232,,,
node,2593146256,,,,,5654,39.091265,74.6871899,,,
node,2593146296,,,,,5650,39.1679792,74.8921126,,,
node,2589812464,,,,,5638,41.8355478,79.9966146,,,
node,5604553178,,,,,5632,41.018459,77.314935,,,
node,12388655427,Волынка,,Волынка,,5631,42.069358,79.9895229,,,
node,2593036161,,,,,5627,39.2984021,74.3890047,,,
node,5607881837,Сурхангоу,,,,5621,39.2714674,71.923542,,,
node,5620399589,Пик Скалистый,,Пик Скалистый,,5621,39.6208493,70.719209,2085,,
node,2593035842,гора Кинджилгатау,,гора Кинджилгатау,,5620,39.2995849,74.1319124,,,
node,2593036124,,,,,5620,39.282628,74.1900893,,,
node,2118059971,,,,,5619,39.0509956,73.7387011,,,
node,2118060034,,,,,5614,39.1026405,73.7141835,,,
node,2593036013,,,,,5613,39.2468232,74.5068345,,,
node,2626959165,,,,,5610,39.2476844,73.6150814,,,
node,3149076966,Бырс,,Бырс,,5610,39.0206508,71.7887449,,,
node,2593036008,,,,,5608,39.2452058,74.440069,,,
node,2118060075,,,,,5607,39.1600407,73.6890577,,,
node,2626958724,,,,,5606,39.0673193,73.7322125,,,
node,2117819494,Пирамида,,Пирамида,,5600,42.1177472,80.1493299,,,
node,2118059926,,,,,5590,39.0310854,73.7871281,,,
node,2593035848,,,,,5586,39.0117971,74.0415774,,,
node,2589812564,,,,,5585,41.9674256,79.8755367,,,
node,2118059935,,,,,5581,39.0337351,73.7398534,,,
node,2593036080,,,,,5576,39.2726457,74.2274727,,,
node,10223838133,пик 1000-летия Казани,,пик 1000-летия Казани,,5576,42.2317943,79.7928374,,,
node,2118060117,,,,,5571,39.2261001,73.6339665,,,
node,2593035916,,,,,5570,39.218502,74.5757558,,,
node,2593036127,,,,,5562,39.2838812,74.393654,,,
node,2626958780,,,,,5562,39.1128533,73.7365756,,,
node,10223837942,Советской Киргизии,,Советской Киргизии,,5561,42.1840767,80.0445414,,,
node,5604553757,Крылья Советов,,,,5560,40.99649,77.564621,,,
node,2593036011,,,,,5555,39.2467158,74.3043142,,,
node,5607881893,пик Советской Армии,,,,5554,39.3858359,73.0189607,,,
node,2593036132,,,,,5550,39.286595,74.2610154,,,
node,2593146267,,,,,5549,39.1069059,74.7632543,,,
node,5509179557,Pik Tandykul,Pik Tandykul,Пик Тандыкуль,Тамдыкул чокусу,5544,39.4487856,71.0827778,1674,Q7193530,ky:Тамдыкул чокусу
node,2117817977,,,,,5540,41.9858991,79.8533766,,,
node,2626958664,,,,,5535,39.0488955,73.7839335,,,
node,2593146237,,,,,5532,39.0569005,74.8275246,,,
node,2118059928,,,,,5530,39.0318523,73.7652653,,,
node,5767976387,пик Снежный Шатёр,,пик Снежный Шатёр,,5529,39.4998298,71.0968648,,,
node,2626958871,,,,,5522,39.1767245,73.7424016,,,
node,2118060109,,,,,5520,39.2123007,73.6435503,,,
node,2589812463,,,,,5518,41.8348043,79.9768716,,,
node,10218666341,,,,,5510,42.1093146,79.65875,,,
node,10218666730,,,,,5510,42.1228641,79.9066758,,,
node,366138164,Pyramid,Pyramid,Пирамидальный пик,,5509,39.5654629,70.2195282,,Q13172303,
node,2588407044,,,,,5505,42.1139378,80.1833579,,,
node,5033032272,ТССР,,,,5505,39.4634361,73.4506042,,,
node,2117819511,Трёхглавый,,Трёхглавый,,5504,42.1445133,80.1393628,,,
node,2598261696,,,,,5495,39.107735,74.7199382,,,
node,12853940670,пик Армения,,,,5495,39.0466192,71.8220043,,,
node,2626958807,,,,,5494,39.1467684,73.7507733,,,
node,5528660779,Снежный Барс,,,,5491,39.3121457,72.0758271,,,
node,5607882247,Кызкурган,,,,5491,39.3191056,71.9467167,,,
node,349008858,Гезель,,,,5486,39.241045,72.1847033,,,
node,2626958834,,,,,5485,39.1609833,73.7463469,,,
node,349009792,Минтеке,,,,5482,39.5832252,70.4644953,,,
node,10223837920,пик Тюрина,,пик Тюрина,,5478,42.1883163,79.9323202,,,
node,3795767675,Спартакиада,,,,5476,39.4056227,73.0778665,,,
node,5607881839,Кенг,,,,5476,39.2374556,71.96765,,,
node,5604553755,Летавета,,,,5471,41.0230319,77.4270519,,,
node,2593036023,,,,,5470,39.2518602,74.25172,,,
node,10223838507,Дарбаза-тау,,Дарбаза-тау,,5462,42.1941565,80.2286052,,,
node,2118060091,,,,,5460,39.1848937,73.6573435,,,
node,10223838340,Игнатьева,,Игнатьева,,5460,42.277539,80.0391769,,,
node,2440392911,пик Обручева,,,,5459,39.4631696,73.1128561,,,
node,2593035876,,,,,5456,39.1979043,74.5532233,,,
node,2118059897,,,,,5450,39.0253608,73.7548285,,,
node,2588407047,,,,,5450,42.1324763,80.1692748,,,
node,2593036126,,,,,5450,39.2834929,74.1719329,,,
node,10223838401,Karlytau,Karlytau,Карлытау,,5450,42.2813889,80.2309871,,,
node,2118060179,,,,,5448,39.2713444,73.5630092,,,
node,2118060104,,,,,5445,39.2036145,73.6409388,,,
node,5607882248,Заалайский,,Заалайский,,5445,39.2599199,71.8074944,,,
node,2589838838,,,,,5443,41.9972388,79.8295114,,,
node,2589812521,,,,,5441,41.9014305,79.8442982,,,
node,4897514181,Golova Orla,Golova Orla,,,5440,39.4957372,73.5243702,,,
node,2147900801,Одиннадцати,,Одиннадцати,Он бир,5437,42.2857,80.1425583,,,
node,5607881894,пик Пограничников,,,,5437,39.4780803,73.3919492,,,
node,2593036135,,,,,5435,39.288237,74.3012416,,,
node,2593036141,,,,,5435,39.2900869,74.1503781,,,
node,2589812465,,,,,5433,41.8365824,79.9698856,,,
node,2588407038,Лавинный,,Лавинный,,5430,42.0690377,80.1766734,,,
node,2593146246,,,,,5430,39.0710492,74.6689175,,,
node,5607880217,пик Гоголя,,пик Гоголя,,5430,39.0367248,71.7764707,,,
node,3073821756,Айлама,,,,5428,39.7177178,71.4865888,,,
node,2589812561,,,,,5427,41.9616917,79.8683166,,,
node,5607880012,Шатаевой,,,,5425,39.0081465,71.8548989,,,
node,2589812491,,,,,5422,41.8630653,79.993906,,,
node,2589812575,,,,,5410,41.9839503,79.9888719,,,
node,2593146282,,,,,5410,39.1544056,74.8915319,,,
node,2596899072,,,,,5410,39.1510208,74.9158846,,,
node,2626958846,,,,,5410,39.1717106,73.6931421,,,
node,2626958908,,,,,5405,39.188584,73.7556808,,,
node,2117818028,,,,,5403,41.9952285,79.8481101,,,
node,5765730949,,,,,5402,39.6236397,70.7087803,,,
node,2626958733,,,,,5401,39.0694601,73.7632152,,,
node,5620398279,пик Боец,,пик Боец,,5398,39.6473914,70.7005944,,,
node,2589812471,,,,,5391,41.8440175,79.9597321,,,
node,2626958976,,,,,5390,39.2015228,73.7264281,,,
node,10223837934,Крупской,,Крупской,,5390,42.1958337,80.010649,,,
node,2626959231,,,,,5385,39.2792091,73.7197372,,,
node,2589812576,,,,,5382,41.984158,79.8948108,,,
node,10223838335,Краснова,,,,5378,42.2716566,80.0707626,,,
node,2598261613,,,,,5377,39.05854,74.6534544,,,
node,2626959059,,,,,5375,39.2177768,73.7079526,,,
node,2626959261,,,,,5371,39.292399,73.5927294,,,
node,349009776,,,,,5370,39.6053557,70.5175983,,,
node,2589812500,,,,,5370,41.8715393,79.98561,,,
node,2626959237,,,,,5370,39.2802218,73.5827699,,,
node,5604553174,Ворон,,,,5370,41.024338,77.309921,,,
node,8863222883,Губаева,,,,5368,39.508127,73.6807109,,,
node,2626959056,,,,,5362,39.2175922,73.6592255,,,
node,2593146224,,,,,5361,39.0211691,74.7974052,,,
node,2593146226,,,,,5361,39.0240357,74.8305303,,,
node,2593135318,,,,,5360,39.0391298,74.0263184,,,
node,10218782103,,,,,5360,42.0784289,80.0341987,,,
node,10223837932,Рыжова,,Рыжова,,5360,42.1933934,79.9990511,,,
node,3790477750,Зарасак,,,,5358,39.2014472,72.4888361,,,
node,349009947,Ak-suu,Ak-suu,Ак-Суу,,5355,39.5639548,70.0680167,,,
node,2626958762,,,,,5352,39.0861247,73.8253838,,,
node,2593036250,,,,,5350,39.3184236,74.4037842,,,
node,2626958900,,,,,5350,39.1828127,73.8013202,,,
node,3791434742,Ледяной Мыс,,,,5349,39.4524093,73.065373,,,
node,2589812550,,,,,5348,41.942741,79.8651746,,,
node,3800827661,,,,,5345,39.375369,72.4830043,,,de:Pik Saxonia
node,10223838125,,,,,5345,42.2290973,79.7558927,,,
node,2626958786,,,,,5342,39.1214059,73.8746193,,,
node,10218782105,,,,,5340,42.0750683,80.0406575,,,
node,2596899120,,,,,5333,39.1831289,74.6134646,,,
node,5607880016,Турамыс,,,,5333,39.0347056,71.8654635,,,
node,2117839477,Молодежный,,,,5330,41.0300571,77.7312127,,,
node,2626958633,,,,,5329,39.0278841,73.7345967,,,
node,5607881685,Романтик,,Романтик,,5322,39.2713248,71.8030812,,,
node,2593146254,,,,,5321,39.0875427,74.6409928,,,
node,2626959215,,,,,5321,39.2761119,73.6424496,,,
node,10218666716,,,,,5310,42.1315135,79.9270713,,,
node,13515923935,Снежная лестница,,Снежная лестница,,5310,42.2620973,79.9009627,,,
node,2576005853,Kara-suu,Kara-suu,Карасу,,5309,39.5972442,70.2032223,,,
node,2588407048,Майлина,,Майлина,,5300,42.1460967,80.1670248,,,
node,5604553753,Неизвестный солдат,,,,5300,41.038229,77.365333,,,
node,3148943020,Ширвоза,,,,5299,39.1862981,71.7979288,,,
node,5607881682,Черная Стена,,,,5299,39.2459879,71.7690783,,,
node,5607881895,пик Архар,,,,5298,39.4701033,73.3320324,,,
node,5943269821,30-летия Победы,,,,5298,39.3518058,73.190792,,,
node,2626958813,,,,,5297,39.1493323,73.7794,,,
node,5169166674,,,,,5296,39.1352533,71.9948244,,,
node,2626958622,,,,,5294,39.0209734,73.7846068,,,
node,349009747,Kshemysh-Bashi,Kshemysh-Bashi,,,5290,39.5840518,70.6459431,,,
node,5605660233,Александра,,,,5290,41.6858452,79.0210148,1530,,
node,2118060085,,,,,5286,39.170895,73.6596245,,,
node,2439785053,Челябинец,,,,5285,39.4024019,73.0417657,,,
node,2626958764,,,,,5285,39.0892989,73.8629832,,,
node,5605660268,Летавета,,,,5285,41.6586167,78.9202833,,,
node,2593135306,,,,,5284,39.0239683,74.126501,,,
node,2598261654,,,,,5283,39.0916298,74.8332058,,,
node,1995173694,Sabakh,Sabakh,Сабах,,5282,39.5733244,69.9022988,,,
node,1867556461,пик Советской Конституции,,пик Советской Конституции,Советтик Конституциянын туу чокусу,5281,42.0361937,78.9082288,1671,,
node,5605660899,пик Каракол,,,,5281,42.1699401,78.4633899,,,
node,5604553749,Трапеция,,,,5280,41.021898,77.448115,,,
node,9863706966,пик Гранитный,,пик Гранитный,,5278,39.6211461,70.4158159,,,
node,7614932738,Djanghorn,,,,5274,41.6695927,78.9885218,,,
node,2593036259,,,,,5270,39.3200697,74.2389908,,,
node,2593135345,,,,,5270,39.0819606,74.0984175,,,
node,2598261651,,,,,5270,39.0886584,74.6657882,,,
node,7341569896,,,,,5270,39.4706552,71.0800838,,,
node,12379337273,,,,,5270,42.072504,80.0851285,,,
node,2593135319,,,,,5258,39.0393873,74.1221006,,,
node,2593135298,,,,,5253,39.0137234,74.1901562,,,
node,2626443923,,,,,5251,39.0260976,73.9754006,,,
node,10223838175,Pioner,Pioner,Пионер,,5251,42.2449502,79.8588523,,,
node,5767976962,,,,,5250,39.4423811,71.0926162,,,
node,7715186551,Tuteklik,Tuteklik,Тутеклик,,5250,39.3213319,70.0601161,1615,,
node,3363499003,Ташкент,,,,5248,39.7916768,71.7203917,,,
node,2440392872,,,,,5247,39.4369298,73.0344699,,,
node,2593035982,,,,,5245,39.2368302,74.3385756,,,
node,2593135294,,,,,5244,39.0095865,74.1243487,,,
node,3676270513,,,,,5242,39.3960467,72.6947377,,,
node,2593146292,,,,,5241,39.1647509,74.8651124,,,
node,2626959161,,,,,5241,39.2469996,73.6518518,,,
node,2593035911,,,,,5239,39.2159296,74.4808669,,,
node,2593146307,,,,,5237,39.1869756,74.8698851,,,
node,10218782144,Вернадского,,,,5235,42.1054185,79.9727225,,,
node,10218782130,Сланцевый,,Сланцевый,,5230,42.0791137,80.0806331,,,
node,10223838152,,,,,5230,42.2407346,79.8101377,,,
node,1995173704,Блока,,,,5229,39.5902208,70.1172183,,,
node,9164779322,Саук-Джайляу Центральный,,,,5227,39.7595296,71.9436907,,,
node,3149076841,Биби-Зейнаб,,,,5226,39.009297,71.836513,,,
node,8925821337,5224,,,,5224,41.0784733,77.6685923,,,
node,2626959081,,,,,5221,39.2206998,73.599471,,,
node,2118060197,,,,,5217,39.2966791,73.5561226,,,
node,2593035873,,,,,5217,39.1951623,74.5373481,,,
node,301101558,Karakol peak,Karakol peak,пик Каракол,Каракол чокусу,5216,42.1724333,78.4640472,,Q21519918,en:Karakol Peak
node,2593035906,,,,,5212,39.2143929,74.6800576,,,
node,10223759313,Коляды,,Коляды,,5211,42.1910724,79.8948097,,,
node,5767976963,,,,,5210,39.4846911,71.0854262,,,
node,10223837953,Жолак-Тоо,,Жолак-Тоо,,5210,42.1809126,80.1871383,,,
node,10223838162,,,,,5210,42.2471363,79.8266172,,,
node,10726872400,,,,,5210,42.0100196,78.7057972,,,
node,12385455273,Перо,,Перо,,5210,42.1086303,80.1291887,,,
node,349009826,,,,,5209,39.5889488,70.3607649,,,
node,7614932739,,,,,5207,41.6734676,78.9860112,,,
node,2593036254,,,,,5205,39.3186013,74.2604341,,,
node,5605661079,пик Обручева,,,,5203,42.0374611,78.6974433,,,
node,2589812556,,,,,5202,41.9521885,79.8730292,,,
node,2626959347,,,,,5202,39.308269,73.7482099,,,
node,3802165835,Рогова,,,,5195,39.2336825,72.2116542,,,
node,2117817897,,,,,5190,41.9672301,79.8213518,,,
node,5605660236,Pernille,,,,5190,41.7110786,79.0740883,,,
node,1882688057,,,,,5189,39.6176522,70.4163015,,,
node,2589812476,,,,,5188,41.8478964,79.9350425,,,
node,5604553171,Каменная лошадь,,,,5186,41.0310645,77.3077116,,,
node,3800825045,Кек-Чукур,,,,5184,39.2849272,72.3028019,,,
node,3795767549,Танкоград,,,,5182,39.4031998,73.0961021,,,
node,2593146236,,,,,5181,39.0560017,74.8575552,,,
node,2593035845,гора Марнанчоку,,гора Марнанчоку,,5175,39.3017847,74.0010978,,,
node,2593135342,,,,,5171,39.0732716,74.0314592,,,
node,2589812502,,,,,5170,41.8747688,79.9732123,,,
node,2593036040,,,,,5170,39.2600441,74.7050463,,,
node,2593146271,,,,,5170,39.1176293,74.8232242,,,
node,1867556488,Boris Yeltsin peak,Boris Yeltsin peak,,,5168,42.1524528,78.3985499,,,
node,2596899057,,,,,5167,39.1409318,74.9330872,,,
node,5767976966,,,,,5165,39.5033611,71.1054262,,,
node,3667603562,пик Петроградец,,пик Петроградец,,5163,39.5852846,70.0429916,,,
node,2626958806,,,,,5162,39.1465356,73.8037591,,,
node,2593036185,,,,,5161,39.305972,73.9920337,,,
node,5604555794,Гипротрансмост,,,,5160,41.019481,77.443466,,,
node,10768402834,Витязь,,,,5160,41.016253,77.6472849,,,
node,2593146311,,,,,5157,39.1951931,74.8897596,,,
node,2593135305,,,,,5155,39.0227837,74.2330746,,,
node,4897507955,Ekishak,Ekishak,,,5155,39.5068552,73.5517287,,,
node,349009945,,,,,5151,39.5705494,70.0704833,,,
node,5169166678,,,,,5150,39.1194066,71.9897497,,,
node,5605660905,Вано,,,,5149,42.1495645,78.4036517,,,
node,7341716024,пик Кольцова,,,,5147.2,39.7669601,71.2649278,,,
node,2593036108,,,,,5145,39.277687,74.1477465,,,
node,2593146321,,,,,5144,39.2104278,74.9022938,,,
node,5605660235,Rakhmat,Rakhmat,,,5144,41.624522,78.893814,,,
node,2593036144,,,,,5143,39.2902695,74.4400422,,,
node,2626959298,,,,,5141,39.3026381,73.5948463,,,
node,2593135332,,,,,5140,39.0560287,74.1385064,,,
node,2593036015,,,,,5137,39.2483324,74.71032,,,
node,2593135292,,,,,5135,39.0083247,74.2436072,,,
node,2593035997,,,,,5130,39.240325,74.5893634,,,
node,2959677446,Pik Neizvestny,,,,5130,40.9975664,77.4842035,,,
node,4172272190,Yukhin,Yukhin,Юхина,Юхин,5130,39.4122602,72.8399535,,,
node,2593135297,,,,,5127,39.0130401,74.1617466,,,
node,5767351232,Айдарбек,,,,5127,39.6417683,71.6320609,,,
node,2593036284,,,,,5122,39.3241801,74.0068908,,,
node,2593135312,,,,,5122,39.0319759,74.0659147,,,
node,5607881688,Лейтенантов,,,,5122,39.3135389,72.3117056,,,
node,5604553764,,,,,5120,40.999156,77.540811,,,
node,5747207730,,,,,5120,39.6068124,70.1133002,,,
node,10218666692,Шахтёров Украины,,Шахтёров Украины,,5120,42.1400285,79.8728478,,,
node,11341495872,,,,,5120,40.0400045,74.8293714,1530,,
node,2593036293,,,,,5117,39.3277317,74.454288,,,
node,2589812524,,,,,5115,41.9046886,79.8688715,,,
node,2593036229,,,,,5115,39.3158895,74.1567755,,,
node,2589812503,,,,,5110,41.8780763,79.8475959,,,
node,5604552012,Mystyr,,,,5108,40.4495924,75.0875616,,,
node,349009647,пик Зимовщиков,,,,5100,39.682771,71.5378362,,,
node,2593036285,,,,,5100,39.3243177,74.2073832,,,
node,2593135310,,,,,5100,39.0293861,74.1801287,,,
node,3417997407,,,,,5100,39.7639901,71.7126669,,,
node,5605661080,пик Карпинского,,,,5100,42.0467278,78.9655064,,,
node,5605661126,пик Айгюль,,,,5100,41.8574395,78.3877857,,,
node,10218666580,,,,,5100,42.1400822,79.7795176,,,
node,10218782126,,,,,5100,42.0955953,80.0731659,,,
node,10223837992,Парашютный,,Парашютный,,5100,42.1068514,80.1184844,,,
node,4567014666,Полковая,,,,5097,39.3612966,73.2436131,,,
node,2626958941,,,,,5095,39.1950379,73.8150011,,,
node,5607880123,пик Руслан,,,,5095,39.0394863,71.5953615,,,
node,2593146229,,,,,5091,39.0302868,74.7167941,,,
node,5605661078,пик Пархоменко,,пик Пархоменко,Пархоменко чокусу,5091,42.040625,78.7408139,,,
node,2589812514,,,,,5088,41.8918261,79.8407921,,,
node,5760494014,Текелик,,,,5088,39.6552708,71.6975871,,,
node,7727115313,Peak Samarkand,Peak Samarkand,Самарканд,,5085,39.2990685,69.5963128,,,
node,3800827962,Узловая,,,,5083,39.3811156,72.5305629,,,
node,2626959239,,,,,5082,39.2807292,73.6883631,,,
node,5605660234,Tushunbodum,,,,5081,41.6535836,78.8447119,,,
node,3363498956,пик Ахунбабаева,,,,5080,39.7784482,71.7146485,,,
node,5605661082,пик Богатыри,,пик Богатыри,Богатыри чокусу,5078,42.0447673,78.7888813,,,
node,2626959335,,,,,5072,39.3061409,73.7755085,,,
node,5588966373,Djigit,Djigit,,,5072,42.1896812,78.5279455,,,
node,2959677448,Pik Zastava,,,,5070,40.9957471,77.4928986,,,
node,5767351224,Коммуна,,,,5070,39.6650459,71.635859,,,
node,2621685411,Музток,,,,5066,39.5894794,70.5882899,,,
node,10223838118,,,,,5063,42.2292085,79.7217107,,,
node,2593036234,,,,,5061,39.3160455,74.5414598,,,
node,5604553165,Ночная бабочка,,,,5056,41.012541,77.263874,,,
node,2589812508,,,,,5054,41.8834159,79.8526541,,,
node,2593146275,,,,,5054,39.1298739,74.8351225,,,
node,2626959271,,,,,5052,39.299369,73.6398378,,,
node,7249263223,Skobelev,Skobelev,Скобелева,,5051,39.7931758,72.6165229,1424,,
node,2117817804,,,,,5050,41.9365204,79.802379,,,
node,2593146304,,,,,5050,39.1854451,74.9030235,,,
node,5767976423,,,,,5050,39.607881,71.3609362,,,
node,5788226535,,,,,5050,39.5695932,70.5621386,,,
node,9863707083,,,,,5050,39.5592175,70.3842973,,,
node,2626959130,,,,,5047,39.236114,73.7065574,,,
node,5605661128,,,,,5046,41.9663833,78.35615,,,
node,5767350650,,,,,5046,39.5735424,71.3379192,,,
node,5760392688,Кичик-Айлама,,,,5044,39.6980077,71.5101385,,,
node,1867556465,Amundsen peak,Amundsen peak,пик Амундсена,Амундсен чокусу,5041,42.0509415,78.7692372,,,
node,3398537782,Хотуртау,,,,5040,39.6769583,70.5284545,,,
node,10242159307,Михайлова,,Михайлова,,5040,42.2074136,80.0155949,,,
node,2593036134,,,,,5038,39.2882339,74.2293655,,,
node,2117817680,,,,,5035,41.8974298,79.6883762,,,
node,2589812512,,,,,5035,41.8881232,79.8306733,,,
node,5604552013,Mur Samir,,,,5035,40.4369347,75.0995939,,,
node,2626958798,,,,,5032,39.1380306,73.6471784,,,
node,2589812560,,,,,5030,41.9605167,79.8506312,,,
node,2593146270,,,,,5030,39.1128199,74.6342736,,,
node,2626958654,,,,,5030,39.0413725,73.9563134,,,
node,5196781022,пик Украина,,,,5030,39.073561,71.8333876,,,
node,5605661127,Орой,,,,5027,41.958132,78.36266,,,
node,5605661125,пик Меридиан,,,,5026,41.8756119,78.4269682,,,
node,9014307126,Белый,,,,5021,39.5479011,73.8657403,,,
node,3299235107,Alexander von Humboldt peak,Alexander von Humboldt peak,Пик Александра фон Гумбольдта,Александр фон Гумбольдт чокусу,5020,42.0939736,79.4734759,,Q18778676,de:Pik Alexander von Humboldt
node,5605660903,Огуз-Баши,,,,5020,42.1536864,78.3974375,,,
node,5763230626,,,,,5020,39.7595625,71.7229664,,,
node,5605661081,пик Аксакал,,пик Аксакал,Аксакал чокусу,5019,42.0675,78.7974,,,
node,2440360077,Назарова,,,,5015,39.4002439,73.1260026,,,
node,9863707062,Горняк,,,,5013,39.5222337,70.3433132,,,
node,10768402832,5013,,,,5013,41.0420776,77.5962614,,,
node,3417997408,,,,,5010,39.7631119,71.7052313,,,
node,9198874219,Ушбинка,,,,5010,39.5623441,69.9437928,,,
node,2589838835,,,,,5009,41.9963708,79.8927542,,,
node,2626443926,,,,,5008,39.0531839,73.9789328,,,
node,2589812580,,,,,5004,41.9929955,79.9600001,,,
node,2593135288,,,,,5002,39.005054,74.2148135,,,
node,2626959266,,,,,5002,39.2955941,73.7214693,,,
node,2593146269,,,,,5001,39.1126837,74.8123578,,,
node,5605661134,Pogranichnik,Pogranichnik,Пограничник,,5000,42.3109447,80.2703397,,,
node,2440392867,,,,,4995,39.4319845,73.0217587,,,
node,2593135296,,,,,4995,39.0121676,74.2863088,,,
node,5767976413,,,,,4992,39.625991,71.3689462,,,
node,6027608763,Снежная,,Снежная,,4990,39.4361689,70.5619864,,,
node,10218666382,,,,,4990,42.1526189,79.6508574,,,
node,10226207008,,,,,4990,41.9248555,79.2206525,,,
node,2589812497,,,,,4989,41.8702878,79.769678,,,
node,2593135307,,,,,4989,39.0268299,74.2612137,,,
node,2626958918,,,,,4988,39.1905621,73.6158275,,,
node,2589812569,,,,,4987,41.9737776,79.9815082,,,
node,7249263217,West Skobelev,West Skobelev,Скобелева Западный,,4986,39.7938889,72.6105738,,,
node,5604555953,Турклуба МГУ,,,,4983,41.755834,78.3043392,,,
node,2593036151,,,,,4980,39.296101,74.0394955,,,
node,3149099816,пик Олега Мкртчяна,,,,4980,39.0826142,71.8309951,,,
node,3417331103,Советских школьников,,,,4980,39.7536229,71.7871615,,,
node,3644612994,Talgar,Talgar,Талгар,,4979,43.1186324,77.339875,2990,Q608494,kk:Талғар шыңы
node,3667603862,Dostoevskogo,Dostoevskogo,,,4974,39.6521938,70.1032018,,,
node,2626959258,,,,,4971,39.2902255,73.7639004,,,
node,5607881692,Ак-Чукур,,,,4970,39.296481,72.2151787,,,
node,5767976959,,,,,4970,39.4328911,71.0971162,,,
node,3567176425,,,,,4969,39.4363851,72.9978108,,,
node,5767976967,,,,,4967,39.5188511,71.0969862,,,
node,5767976969,,,,,4966,39.5023111,71.1163462,,,
node,2593036149,,,,,4964,39.2952663,74.754783,,,
node,2596899048,,,,,4964,39.1377123,74.9045445,,,
node,2598261538,,,,,4964,39.0027473,74.8922421,,,
node,3150375985,,,,,4962,39.0606662,71.6101634,,,
node,2117817864,,,,,4961,41.9572681,79.8162049,,,
node,2593135316,,,,,4961,39.0354409,74.0947879,,,
node,2626958802,,,,,4961,39.1433974,73.8557238,,,
node,1995173698,Uzlovoy,Uzlovoy,Узловой,,4960,39.5777463,69.9236425,,,
node,3148834618,Ходжатау,,,,4960,39.1991556,71.7266833,,,
node,9164779335,Саук-Джайляу Восточный,,,,4960,39.7750573,71.9649283,,,
node,10242159304,Исследователей,,Исследователей,,4960,42.2188722,80.0170111,,,
node,5760523121,,,,,4958,39.6264824,70.6320476,,,
node,5765349765,Гора Остроконечная,,Гора Остроконечная,,4957,39.6170329,70.3633937,,,
node,5604555955,пик СНК Киргизии,,,,4956,41.8204575,78.2072769,,,
node,2593146261,,,,,4951,39.0945173,74.8621432,,,
node,2117690534,Uzlovaya,Uzlovaya,Узловая,,4950,42.3183021,80.2840516,,,
node,3363501887,Акташ,,,,4950,39.8166856,71.7642167,,,
node,2626959098,,,,,4949,39.2276454,73.5024101,,,
node,9863706961,Гора Минг-Теке,,Гора Минг-Теке,,4948,39.6399748,70.4261728,,,
node,11987286539,,,,,4948,40.1094442,73.9125635,,,
node,2588407046,,,,,4945,42.1276731,80.1851216,,,
node,5767976035,,,,,4945,39.5539187,71.3326855,,,
node,2589812543,,,,,4944,41.9347985,79.8622291,,,
node,5767976981,,,,,4942,39.5736111,71.2170462,,,
node,5605660237,Laetitia,,,,4940,41.6486,78.81608,,,
node,7341570020,,,,,4939.6,39.5326441,71.3185215,,,
node,5605660735,пик Советская Россия,,,,4937,42.2432639,78.7536556,,,
node,349009586,Гезарт,,,,4935,39.864762,72.411814,,,
node,10223838187,,,,,4935,42.2557926,79.9247549,,,
node,2593036083,,,,,4934,39.272937,74.6823878,,,
node,5605660736,пик Вильнюсского университета,,,,4930,42.2076167,78.6652667,,,
node,3663348924,Ak-suu,Ak-suu,,,4926,39.5855031,70.2695508,,,
node,2589812558,,,,,4925,41.9553776,79.918912,,,
node,5604552010,Shumkar,Shumkar,,,4925,40.4472135,75.0606799,,,
node,5767351173,,,,,4925,39.6440815,71.6951036,,,
node,8998542388,Mount Murphy,Mount Murphy,гора Мерфи,Мерфи тоосу,4925,42.0558096,78.7979185,,,
node,2626443927,,,,,4923,39.3084271,73.9322452,,,
node,11987286540,,,,,4923,40.0796744,73.901354,,,
node,1867556519,пик Сибирских Университетов,,,,4921,42.1996056,78.6912028,,,
node,2593036248,,,,,4921,39.3183755,74.3665414,,,
node,10076718621,,,,,4921,40.1090629,74.0248275,,,
node,5605661123,Рикошет,,,,4920,41.9446392,78.3497862,,,
node,7655485818,Talgar South,Talgar South,Талгар Южный,,4920,43.1141757,77.3342175,,,
node,10218666548,,,,,4920,42.1182963,79.6481967,,,
node,2598261541,,,,,4917,39.0048999,74.9733615,,,
node,5604555954,Скалолазка,,,,4916,41.8325306,78.3153444,,,
node,2440360081,Ташкент,,,,4915,39.4076494,73.1546116,,,
node,2425175562,,,,,4913,39.8763889,72.4861111,,,
node,2959677447,Pik Plaza,,,,4905,41.016075,77.519875,,,
node,3676397259,,,,,4905,39.4431475,72.9885822,,,
node,5604556495,Уч-зеид,,,,4905,40.7071244,74.3534946,,,
node,5604555990,Змея,,,,4903,41.268207,77.293715,,,
node,8925821379,Марона,,,,4902,41.1212231,77.6911599,,,
node,13530471418,Жавжарова,,,,4901,42.1975187,79.9816596,,,
node,5767976408,Ленинградец,,,,4900.1,39.754461,71.8383762,,,
node,2593035974,,,,,4900,39.2330636,74.6953072,,,
node,2598261567,,,,,4900,39.0285838,74.9904165,,,
node,2598261598,,,,,4900,39.0485297,75.0159584,,,
node,5767976420,,,,,4900,39.6168299,71.3580894,,,
node,10218782120,Дикий,,Дикий,,4900,42.1265564,80.0668143,,,
node,2593146301,,,,,4898,39.1791662,74.7567542,,,
node,2593035932,,,,,4895,39.2313738,74.6353575,,,
node,3345999243,пик Семёнова-Тянь-Шаньского,,,,4895,42.5208893,74.5715485,2231,Q20619813,en:Semenov-Tian-Shansky Peak
node,5604553168,Ледяная Стрекоза,,,,4892,41.0142414,77.242183,,,
node,8863222892,,,,,4892,39.5336543,73.6892628,,,
node,2589812477,,,,,4890,41.8506115,79.9171219,,,
node,5610389696,Кызыл-Ункюр,,Кызыл-Ункюр,,4888,39.7629411,72.5213246,,,
node,5605660240,,,,,4887,41.6629482,78.8419722,,,
node,10223759310,Броненосец,,Броненосец,,4887,42.1898641,79.8782444,,,
node,3567176431,,,,,4885,39.4386278,73.0037734,,,
node,5605660238,Kathryn,Kathryn,,,4885,41.7141864,79.0407944,,,
node,2593036092,,,,,4883,39.2749041,74.4238524,,,
node,2626959201,,,,,4883,39.2709658,73.8075455,,,
node,3700494182,Parus,Parus,,,4883,39.6008937,69.9373769,,,
node,5767976982,,,,,4883,39.5720208,71.2293005,,,
node,2593135346,,,,,4882,39.0839192,74.0037323,,,
node,2593146238,,,,,4882,39.0577292,74.8965261,,,
node,2596899076,,,,,4881,39.1553161,74.9863913,,,
node,2956454570,пик Сахарова,,,,4881,39.9338141,72.6476553,,,
node,5767976997,,,,,4880,39.5726502,71.3488568,,,
node,2589812551,,,,,4879,41.9452553,79.8225501,,,
node,2593135330,,,,,4875,39.0501573,74.2194786,,,
node,3417331078,Крылья Советов,,,,4871,39.7499108,71.7411128,,,
node,349008994,Каратау,,,,4870,39.2937234,71.7850971,,,
node,1867556471,,,,,4870,42.0756258,78.8239324,,,
node,2596899032,,,,,4870,39.1269154,74.9400153,,,
node,3364599681,Фергана,,,,4870,39.8091836,71.8100891,,,
node,4132453562,,,,,4870,39.8012527,72.619986,,,
node,10218782085,Песни Абая,,Песни Абая,,4870,42.1298187,80.0225687,,,
node,2956454580,пик Сахарова Восточный,,,,4868,39.9337625,72.6564502,,,
node,2593146328,,,,,4866,39.2226584,74.8531285,,,
node,5767976416,,,,,4866,39.634101,71.3629962,,,
node,5604553166,Нога бабочки,,,,4865,41.039276,77.303736,,,
node,5760523126,,,,,4865,39.6405125,70.6253528,,,
node,5767976034,,,,,4863,39.6052473,71.491798,,,
node,3364599680,Улитор,,,,4860,39.8063815,71.8023824,,,
node,5767976033,,,,,4860,39.5436683,71.3352582,,,
node,1867556458,,,,,4855,42.0316159,78.6286132,,,
node,2593036047,,,,,4855,39.2612412,74.5165996,,,
node,3345999219,пик Лермонтова,,,,4855,42.5067831,74.5797208,,,
node,2593135282,,,,,4854,39.0011294,74.3170859,,,
node,2117817601,,,,,4850,41.8917558,79.768728,,,
node,2596899079,,,,,4850,39.1558324,74.9569227,,,
node,3336726226,Пастухова,,,,4850,42.4668139,74.7222625,,,
node,3715255107,пик Искандер,,пик Искандер,,4850,39.5888069,70.0449228,,,
node,5767976026,,,,,4850,39.5727311,71.1367762,,,
node,10218782139,Комсомол,,,,4850,42.1291516,79.97659,,,
node,2626958721,,,,,4848,39.0667272,73.9524722,,,
node,5604556494,Хаокан Северный,,,,4848,40.5477333,74.6240833,,,
node,1867556477,,,,,4845,42.0991187,78.4037426,,,
node,2596899142,,,,,4844,39.2060056,74.7067836,,,
node,2593036168,,,,,4843,39.3000514,74.3276451,,,
node,2593036279,,,,,4842,39.323401,74.1166939,,,
node,2117838258,Краков,,,,4841,41.0045552,77.2617595,,,
node,3644612980,Talgar Southwest,Talgar Southwest,Талгар Юго-Западный,,4841,43.1085651,77.3316678,,,
node,3336576793,Киргизстан,,,,4840,42.4858224,74.714583,,,
node,2626959094,,,,,4837,39.2240761,73.7700948,,,
node,5604552017,Karyshkyr,,,,4836,40.4675102,75.0908962,,,
node,5767976045,,,,,4835,39.582066,71.4446041,,,
node,3790477790,Джайляукуль,,,,4834,39.2075111,72.4075278,,,
node,2626959045,,,,,4832,39.2142455,73.5645748,,,
node,5607880810,пик Землятина,,пик Землятина,,4832,39.0608333,72.2723833,,,
node,5760392942,,,,,4832,39.6372666,71.4412784,,,
node,2589812487,,,,,4830,41.8596309,79.7552541,,,
node,2593146334,,,,,4830,39.24007,74.8864816,,,
node,4132436193,,,,,4830,39.8105075,72.6038069,,,
node,5604552016,Kumay,,,,4830,40.4534825,75.0440037,,,
node,10218666938,,,,,4830,42.0979518,79.5124125,,,
node,11125502246,Корона 3-я,,,,4830,42.508151,74.5659873,,,
node,5604554298,Джукучак,,,,4829,42.036385,78.1295919,,,
node,5760392320,,,,,4829,39.7801723,71.6640146,,,
node,7289416632,Дамтоо,,Дамтоо,,4827,39.7863291,72.5412708,,,
node,3800825035,Терс-Агар,,,,4826,39.241743,72.2818637,,,
node,5605660267,Энгельгардта,,,,4826,41.6373806,78.6869,,,
node,2439696849,Petrovsky Peak,Petrovsky Peak,Петровского,,4825,39.4585374,72.8840196,,,
node,10768402835,Черноголовка,,,,4825,41.0865642,77.6137847,,,
node,5767351188,,,,,4824,39.6409256,71.6688823,,,
node,2589812496,,,,,4822,41.8683832,79.8413909,,,
node,3398451669,Звездный,,Звездный,,4822,39.56988,70.1355836,,,
node,5788226471,,,,,4821,39.5385725,70.5688442,,,
node,1867556475,,,,,4820,42.0900383,78.8785743,,,
node,2593036103,,,,,4820,39.276763,74.4493277,,,
node,2593036125,,,,,4817,39.2826311,74.6639987,,,
node,2440360108,Лагерный,,,,4816,39.4180438,73.1777912,,,
node,5610390024,Valighond,Valighond,,,4816,39.2897286,69.6976409,,,
node,2589812534,,,,,4815,41.9214916,79.8640673,,,
node,2593036062,,,,,4815,39.2660236,74.1468477,,,
node,5604555772,,,,,4815,41.4180778,77.6928194,,,
node,5767976978,,,,,4815,39.5087911,71.1912562,,,
node,1875542094,Двурогая,,,,4814,42.5041438,74.5723098,,,
node,5229620181,,,,,4813,39.3078041,73.5616636,,,
node,2626959369,,,,,4812,39.314285,73.6632412,,,
node,5604553212,Пирамида,,,,4812,41.0539072,77.3047526,,,
node,2593135348,,,,,4810,39.0898638,74.0535105,,,
node,2593146277,,,,,4810,39.13689,74.8180035,,,
node,2626958792,,,,,4810,39.1295744,73.6234117,,,
node,3346060521,Корона 4-я,,,,4810,42.5074093,74.5662677,,,
node,5742773372,Одесса,,Одесса,,4810,39.603388,70.2711926,,,
node,5767976417,,,,,4810,39.611701,71.3320162,,,
node,10218666947,,,,,4810,42.0874745,79.5091724,,,
node,5604554296,Иттиш,,,,4808,42.0081334,77.9312059,,,
node,2593135335,,,,,4807,39.0604525,74.2126468,,,
node,5767976452,,,,,4806,39.5015572,71.3010549,,,
node,7315161547,Сыновей,,,,4806,39.7118663,71.8529304,,,
node,9590378150,Дарбазачы,,Дарбазачы,,4806,39.7577262,72.5228119,,,
node,2589812579,,,,,4805,41.9880606,79.9180251,,,
node,2593135368,,,,,4805,39.1326114,74.0958471,,,
node,2959677444,Pik Anin,,,,4805,41.0022897,77.4933743,,,
node,5767351098,,,,,4805,39.6595122,71.7439627,,,
node,2589812528,,,,,4803,41.906354,79.8870249,,,
node,2626958749,,,,,4802,39.0808528,73.9101296,,,
node,3417330905,Николаева,,,,4802,39.7192729,71.8282027,,,
node,5760393073,,,,,4802,39.583703,71.4266796,,,
node,2589838804,,,,,4801,41.9544202,79.8285106,,,
node,2593135252,гора Догдорбаши,,гора Догдорбаши,,4801,39.0465326,74.2426121,,,
node,5767976027,,,,,4801,39.5667608,71.1287069,,,
node,2440404601,пик Мусы Джалиля,,,,4800,39.4461454,72.8750185,,,
node,5604553121,Bars,,,,4800,40.4437912,75.0520431,,,
node,9164779325,Саук-Джайляу Белый,,,,4800,39.7577646,71.9565653,,,
node,10246609665,Гусева,,Гусева,,4800,42.2015802,80.0775326,,,
node,11125502247,Корона 2-я,,,,4800,42.5089018,74.5652381,,,
node,5605660897,пик Слоненок,,,,4797,42.1743373,78.5094273,,,
node,10086900778,,,,,4797,40.0146328,73.9288902,,,
node,10789557784,,,,,4797,41.9811472,77.6930272,,,
node,5767350635,,,,,4795,39.5946108,71.3447642,,,
node,5767976976,,,,,4792,39.5005307,71.2043666,,,
node,5767976977,,,,,4787,39.4927981,71.1831879,,,
node,12980236656,Кафедра,,,,4786,41.022974,77.2945475,,,
node,2117817831,,,,,4785,41.9450321,79.8133832,,,
node,2626958916,,,,,4785,39.1903011,73.5915304,,,
node,5605660239,Emma,Emma,,,4783,41.69426,78.9293,,,
node,2626958855,,,,,4781,39.1728351,73.8776689,,,
node,2626958795,,,,,4780,39.1360385,73.9172974,,,
node,5767976958,,,,,4780,39.412207,71.06353,,,
node,11188956620,пик Мажвидаса,,,,4780,42.2137152,78.6635685,,,
node,2147900832,Сигитова,,,,4777,42.3194892,80.0859982,,,
node,3346060493,Свободная Корея,,Свободная Корея,,4777,42.4965137,74.5450258,,Q13667726,en:Free Korea Peak
node,3667603561,Bird,Bird,Птица,,4774,39.5390537,70.31432,,,
node,5604556498,Баяман Узловая,,Баяман Узловая,,4773,40.54649,74.55744,,,
node,1867556479,,,,,4772,42.1042246,78.3409095,,,
node,5578960584,Чоктал,,Чоктал,,4771,42.7755619,76.6885198,,,
node,11198182869,пик Калашникова,,,,4771,42.2946277,78.8969367,,,
node,2589812523,,,,,4770,41.9044146,79.9102925,,,
node,5607880141,Борактау,,,,4770,39.078074,71.533258,,,
node,2589812489,,,,,4768,41.8606582,79.7731493,,,
node,2589812456,,,,,4764,41.8273313,79.7374454,,,
node,2145680101,Кара-Кунгей,,,,4762,41.9402037,76.7225583,,,
node,2589812557,,,,,4762,41.9542367,79.9068846,,,
node,5767976355,,,,,4762,39.5437211,71.4024862,,,
node,2626958742,,,,,4760,39.0727819,73.6604104,,,
node,3644612967,Gorin,Gorin,Горина,,4760,43.1065161,77.3327626,,,
node,5767976410,,,,,4759,39.5203511,71.3906762,,,
node,10768402833,Пожарных героев Чернобыля,,,,4759,41.0334044,77.6441306,,,
node,5604556422,Кенсу,,,,4757,40.89372,75.606362,,,
node,5604556423,,,,,4755,40.9589444,75.7654444,,,
node,5767976392,,,,,4754.1,39.4042311,71.3825062,,,
node,10086900758,,,,,4754,40.0395751,73.9307355,,,
node,3345999256,пик Скрябина Южный,,,,4753,42.5284266,74.5725079,,,
node,1867556564,,,,,4752,42.300079,78.8866635,,,
node,5610389586,Николая Чудотворца,,,,4752,39.8064715,72.5347799,,,
node,5767976975,Кимиздыкты,,Кимиздыкты,,4751,39.4787174,71.213054,,,
node,2589838805,,,,,4750,41.956537,79.7913992,,,
node,3363499210,Зачетная,,,,4750,39.8135357,71.7921824,,,
node,5604555795,Борколдой,,,,4750,41.3009694,77.5587417,,,
node,5604556496,Кашкасу,,Кашкасу,,4750,40.5531921,74.5821798,,,
node,5605660831,пик Тухачевского,,,,4750,42.1952722,78.4418838,,,
node,9217874126,Argo,Argo,,,4750,39.5813818,69.9333858,,,
node,10218666512,,,,,4750,42.0984135,79.5483541,,,
node,10247146760,,,,,4750,42.1833772,79.3242502,,,
node,2626959189,,,,,4748,39.2587966,73.7862483,,,
node,2589812566,,,,,4747,41.9713292,79.9131569,,,
node,5604552008,Zeus,,,,4747,40.498232,75.0342701,,,
node,5604556453,Bar-Tau,Bar-Tau,,,4743,40.5366667,74.8277778,,,
node,2626958651,,,,,4741,39.0393817,73.9000594,,,
node,5605660902,пик Альбатрос,,,,4740,42.1974295,78.5549104,,,
node,2593135327,,,,,4739,39.0493168,74.2847531,,,
node,11194770679,,,,,4737,41.9804992,77.7078049,,,
node,5759188781,Сарнигми,,,,4736,39.5892782,71.55388,,,
node,9285752603,Dannman-Tau,Dannman-Tau,,,4732,40.5114387,74.8779696,,,
node,5767976353,,,,,4731,39.5554406,71.4010668,,,
node,2598261561,,,,,4730,39.0269258,75.0117588,,,
node,9164779352,Саук-Джайляу Юго-восточный,,,,4730,39.7620368,71.9668865,,,
node,10768402831,Горных водителей,,,,4730,41.1027345,77.6606997,,,
node,2441781637,ITMO University Peak,ITMO University Peak,пик университета ИТМО,,4729,39.476155,72.9640549,,,
node,8888415138,Peak Schullinger-Krause,,,,4727,41.415972,77.639778,,,
node,11194770839,,,,,4723,42.0064322,77.6824379,,,
node,5760523130,,,,,4722,39.6555557,70.6259,,,
node,1867556468,Карнизная,,,,4721,42.0610189,78.6918497,,,
node,2117852412,,,,,4721,40.0994957,74.0415845,,,
node,3417330940,Титова,,,,4721,39.7267758,71.8189559,,,
node,5605660847,пик Блюхера,,,,4720,42.2006591,78.444898,,,
node,5760393088,,,,,4720,39.603371,71.4638962,,,
node,9626351185,Сибирской Академии Наук,,Сибирской Академии Наук,,4720,42.7733778,76.6776725,,,
node,9626351186,Pal'gov,Pal'gov,Пальтова,Пальгов,4720,42.7729496,76.6780656,,,
node,9875873146,Jumar-Too,Jumar-Too,,,4720,40.5386763,74.7960269,,,ru:Тоо
node,11649241172,Палатка,,,,4720,42.2404011,78.6952176,,,
node,2589838809,,,,,4719,41.9630004,79.7669863,,,
node,2314877406,,,,,4718,39.2574438,69.12001,,,
node,3417330870,Терешковой,,,,4716,39.7139061,71.8444335,,,
node,5604555989,Музбулак,,,,4716,41.244292,77.155046,,,
node,5605660827,Таштамбектор-Баши,,,,4716,42.3648263,78.8423738,,,
node,5763439687,,,,,4716,39.5783311,71.4637462,,,
node,2117849223,пик Сибиряков,,,,4714,39.5920725,73.9120195,,,
node,7289416640,Кичик Дамтоо,,Кичик Дамтоо,,4712,39.7843449,72.5530269,,,
node,5604553161,Пять бастионов,,,,4711,41.0645834,77.3040362,,,
node,5605660906,,,,,4711,42.23015,78.6186,,,
node,5604552018,Helen,,,,4710,40.4624093,75.0689792,,,
node,5604556454,,,,,4710,40.5519806,74.621175,,,
node,1740257175,GUVVO,GUVVO,ГУВВО,,4709,43.0872687,77.3305372,,,
node,5610390118,Kattabarzangi,Kattabarzangi,Каттабарзанги,,4709,39.1215525,69.648178,,,
node,2593146314,,,,,4706,39.1977975,74.7649101,,,
node,5767351182,Кимасдыкты,,,,4706,39.6216068,71.6492485,,,
node,2626959326,,,,,4705,39.3042101,73.9470403,,,
node,5604553162,Пони,,,,4705,41.0339328,77.2902775,,,
node,5605660269,А. Морозова,,,,4704,41.60325,78.6918833,,,
node,5767976481,,,,,4701,39.4936772,71.2562931,,,
node,5605660841,пик Карбышева,,,,4700,42.2046247,78.4428696,,,
node,5767976041,,,,,4700,39.5137511,71.2950262,,,
node,5767976406,Москвич,,,,4700,39.755381,71.8129862,,,
node,5767976960,,,,,4700,39.4345509,71.1066801,,,
node,10076719993,Сугут,,Сугут,,4700,39.8606043,73.5862541,,,
node,2593146317,,,,,4699,39.1989749,74.9359697,,,
node,2117852203,穆斯塔格山  Mustak,,,,4697,40.0917937,74.0285768,,,
node,3417330975,Гагарина,,,,4696,39.731868,71.8173021,,,
node,1867556456,,,,,4695,42.0273732,78.8337693,,,
node,5605660896,Фестивальная,,,,4695,42.1788724,78.5106833,,,
node,10575440443,,,,,4693,39.5429719,73.8772551,,,
node,3417330887,Поповича,,,,4691,39.7163303,71.8328851,,,
node,1740256957,Esiktin Shokysy,Esiktin Shokysy,Есиктин Шокысы,,4690,43.0533142,77.3465781,,,
node,5604554297,Загадка,,,,4690,42.1118402,78.2798912,,,
node,5604556436,Bashnya,Bashnya,,,4690,41.002422,75.930562,,,
node,5760515184,,,,,4690,39.6871103,70.6061375,,,
node,5767976518,,,,,4690,39.4632009,71.1479759,,,
node,9680266164,Царнтоо,,,,4688,39.9590633,72.6559138,,,
node,2593135383,,,,,4687,39.1577764,74.1009892,,,
node,2626958956,,,,,4686,39.197274,73.5763748,,,
node,3336576829,Angela Davis peak,Angela Davis peak,пик Анджелы Девис,,4686,42.5153645,74.7506417,,,
node,5767351094,,,,,4686,39.6568195,71.763103,,,
node,5604556455,,,,,4685,40.5509944,74.5876528,,,
node,2593135373,,,,,4684,39.1405862,74.0777191,,,
node,2596899109,,,,,4683,39.1750469,74.9770953,,,
node,10566138176,,,,,4683,40.1240037,74.0407491,,,
node,1867556460,,,,,4682,42.0350049,78.5670279,,,
node,2593135367,,,,,4682,39.132397,74.0063319,,,
node,2627097366,,,,,4682,39.0698073,75.0415176,,,
node,6009625660,Пирьях,,Пирьях,,4681,39.5393261,69.3437712,,,
node,2593135333,,,,,4679,39.059402,74.2892851,,,
node,5767976023,,,,,4679,39.512666,71.2542987,,,
node,9919430669,,,,,4678,39.92621,73.6518072,,,
node,5604554299,,,,,4677,41.9867833,77.8826861,,,
node,12110797689,,,,,4674,42.087565,77.8687434,,,
node,5767976433,,,,,4670.2,39.3630911,71.3516262,,,
node,5604553725,Значкистов,,,,4670,41.092401,77.424678,,,
node,5767976536,,,,,4663.2,39.6672427,71.6866922,,,
node,1867556561,,,,,4663,42.2817541,78.8205957,,,
node,5767976972,,,,,4661,39.5082511,71.1740262,,,
node,2593135353,,,,,4660,39.1031131,73.9924653,,,
node,5604556497,Минджар,,,,4660,40.5315,74.6614833,,,
node,1867556430,Борду,,,,4656,42.0705994,78.4949921,,,
node,2593036166,,,,,4655,39.2989711,74.5175772,,,
node,2598261550,,,,,4655,39.01564,74.917302,,,
node,5767976354,,,,,4655,39.5698411,71.4136162,,,
node,3345999212,,,,,4653,42.5065858,74.591567,,,
node,11155837757,Chaykovskiy,Chaykovskiy,Чайковского,Чайковский,4653,42.9114512,77.2807938,,,
node,2593036202,,,,,4652,39.3093367,74.6765943,,,
node,1867556476,,,,,4651,42.0973555,78.2576634,,,
node,2147900825,Акимова,,,,4651,42.3157802,80.1069856,,,
node,2589812501,,,,,4650,41.87473,79.9598439,,,
node,2589812552,,,,,4650,41.9482276,79.9188436,,,
node,2593146233,,,,,4650,39.0443904,74.7213871,,,
node,3336576796,Западная Усечёнка,,Западная Усечёнка,,4650,42.4883154,74.7310982,,,
node,3336576839,Турдакуна Усубалиева,,,,4650,42.5297163,74.742361,,,
node,5604556456,,,,,4650,40.5601175,74.58146,,,
node,5604556493,Chingiz Aitmatov,Chingiz Aitmatov,Чингиза Айтматова,Чыңгыз Айтматов,4650,40.7441032,74.3133258,,Q4362533,ru:Пик Айтматова
node,5760393085,,,,,4650,39.6005465,71.4565802,,,
node,9166613950,Энергия,,Энергия,,4650,39.5718719,69.9296522,,,
node,9385093420,Спартакиады народов СССР,,Спартакиады народов СССР,,4650,42.7786812,76.6973919,,,
node,2593036329,,,,,4649,39.3300994,74.3326194,,,
node,2593036018,,,,,4648,39.2511477,74.5419253,,,
node,9197173335,Dioscury,Dioscury,Диоскуры,,4648,39.5843089,69.9420762,,,
node,2589993782,,,,,4647,39.0076274,75.1762752,,,
node,12241649625,Ishanbulak,Ishanbulak,Ишанбулак,Ишанбулак,4647,42.9054059,77.2974677,,,
node,9626351187,Киргизии Южная вершина,,,,4646,42.7712917,76.646535,,,
node,2593135349,,,,,4645,39.0939311,74.1440758,,,
node,2956442828,Чарат Главный,,,,4644,39.9780286,72.6513615,,,
node,5604556492,Чонг-Каракоман,,,,4644,40.68164,74.40654,,,
node,349004946,Kemin,Kemin,Кеминский,Кемин,4643,42.9161177,77.2215958,,,
node,2589812513,,,,,4643,41.8900369,79.8921777,,,
node,2626959157,,,,,4643,39.2455188,73.7635222,,,
node,10726872457,,,,,4641,42.0607383,78.6011802,,,
node,10247146559,,,,,4640,42.1526189,79.2483328,,,
node,2593036241,,,,,4639,39.3177413,74.3158311,,,
node,3336576809,Искра,,,,4639,42.4965737,74.7649536,,,
node,7341570015,,,,,4639,39.5231772,71.3044452,,,
node,11194770685,,,,,4639,41.9670849,77.7050972,,,
node,1867556457,,,,,4638,42.0301144,78.0014585,,,
node,1740257035,Vsevobuch,Vsevobuch,Всевобуч,,4635,43.0668834,77.3529952,,,
node,2314876847,,,,,4635,39.0873353,69.0209965,,,
node,2593036152,,,,,4635,39.2967795,74.7199601,,,
node,5604554564,Attie,,,,4635,41.9553111,76.7845389,,,
node,7653467385,Труд,,Труд,,4635,43.1087094,77.3256728,,,
node,2626958839,,,,,4634,39.1651892,73.898915,,,
node,5604555314,,,,,4634,41.772015,77.68185,,,
node,5578960862,Zharsay,Zharsay,Жарсай,,4632,43.1290517,77.3844432,,,
node,9592100175,Легендарная Магнитка,,,,4632,39.9854727,72.7073907,,,
node,11987843842,,,,,4632,40.070872,74.0178734,,,
node,2593135341,,,,,4630,39.0680679,74.2677749,,,
node,2626959377,,,,,4630,39.3174271,73.9505981,,,
node,5604554615,,,,,4630,41.8538997,77.0734691,,,
node,5578960607,Aktau,Aktau,Актау,,4626,43.096773,77.3123609,,Q16272643,"ru:Актау_(гора,_Казахстан)"
node,2593036180,,,,,4625,39.3042933,74.6377497,,,
node,2626959039,,,,,4625,39.2130082,73.8238058,,,
node,1740256972,Belyj Pik,Belyj Pik,Белый Пик,,4623,43.0551693,77.3338904,,,
node,2593035908,,,,,4623,39.215295,74.4424725,,,
node,2593135339,,,,,4623,39.0661247,74.2418004,,,
node,5767977000,,,,,4623,39.5484911,71.3454462,,,
node,3998101934,Молдо-Баши,,,,4622,41.5501116,76.8847257,,,
node,2589812519,,,,,4621,41.900167,79.9030515,,,
node,5604555808,Naryn-Tau,Naryn-Tau,,,4620,41.3539302,76.4668517,,,
node,5767976449,,,,,4620,39.5420511,71.3153662,,,
node,11987843844,Snezhnaya,Snezhnaya,,,4620,40.1439195,73.7886913,,,
node,12110797484,,,,,4619,42.0300165,78.0347197,,,
node,3660079885,Betkhoven,Betkhoven,Бетховена,Бетховен,4617,42.9360543,77.2611328,,,
node,5604556457,,,,,4616,40.6527778,74.4816667,,,
node,7315203286,Салиевой,,,,4616,39.6989405,71.8724942,,,
node,1882765924,Тенисбай,,,,4615,39.6031422,69.5955562,,,
node,2589812479,,,,,4615,41.8530743,79.8339234,,,
node,3346060509,Ак-Тоо,,,,4612,42.5021885,74.5332926,,,
node,3417330776,Добровольского,,,,4612,39.7019809,71.8329611,,,
node,5605660901,пик Бригантина,,,,4612,42.1982437,78.5672364,,,
node,8934455314,Kopir,Kopir,Копир,,4612,43.1289568,77.3520359,,,
node,3336576833,,,,,4611,42.5215028,74.7523211,,,
node,1867556482,,,,,4610,42.1161748,78.8765964,,,
node,2589812509,,,,,4610,41.8831945,79.7689509,,,
node,2626958924,,,,,4610,39.1911332,73.901213,,,
node,2117817729,,,,,4605,41.9098467,79.7887123,,,
node,5610389644,Таврия,,,,4605,39.9906333,72.7391767,,,
node,5760392713,пик Андреева,,,,4605,39.640821,71.5327462,,,
node,8998582833,Charlotte peak,Charlotte peak,пик Шарлотта,Шарлотта чокусу,4605,42.0842008,78.8391492,,,
node,3336726184,пик Лесгафта,,пик Лесгафта,,4603,42.4260025,74.74552,,,
node,5604553157,Эффект бабочки,,,,4602,41.0445095,77.2909748,,,
node,1867556539,,,,,4601,42.2288828,78.7581324,,,
node,2386082359,Metallurg,Metallurg,Металлург,,4600,43.142073,77.3664162,,,
node,3336576802,Салык-Баши,,,,4600,42.4894333,74.7436274,,,
node,5604556424,Jel'-Tegirmen,Jel'-Tegirmen,,,4600,41.0252056,75.8973472,,,
node,5604556435,Beersh Berkut,,,,4600,41.006534,75.898365,,,
node,5604556440,Ak-Yurta,Ak-Yurta,,,4600,40.902803,75.621623,,,
node,7653467396,Daugava,Daugava,Даугава,,4600,43.1089438,77.3281618,,,
node,9626351188,Киргизии Северная вершина,,,,4600,42.7728896,76.6446451,,,
node,12400477168,,,,,4600,41.9108367,79.2141294,,,
node,10246532003,Zhandosov,Zhandosov,Жандосова,Жандосов,4599,42.9044587,77.2404313,,,
node,5767976030,Лойсу,,,,4595.7,39.4825911,71.3633662,,,
node,5604556437,Ara,Ara,,,4595,40.9014139,75.6406194,,,
node,6187403488,Шанкол,,,,4593,40.0767794,72.7407225,,,
node,9385093833,Дюре (Кобырга),,,,4593,42.7707393,76.6283782,,,
node,1867556445,Кызыл-Суу,,,,4590,42.0643961,78.1742477,,,
node,2589838799,,,,,4590,41.9301405,79.7823548,,,
node,5604552009,Snow King,,,,4590,40.483311,75.0965202,,,
node,5767976396,,,,,4589.4,39.8230982,71.8898359,,,
node,5767976983,,,,,4589,39.5021533,71.2541914,,,
node,2593036042,,,,,4588,39.2601461,74.6034142,,,
node,11818683664,Jarokov,Jarokov,Жарокова,Жароков,4588,42.8984308,77.2466755,,,
node,5760062976,,,,,4587,39.695157,70.5184883,,,
node,2593135380,,,,,4585,39.1559562,74.0603351,,,
node,5604554300,,,,,4585,42.0314444,78.0959944,,,
node,2626958619,,,,,4582,39.0186126,73.6745997,,,
node,5735891975,,,,,4582,41.9628728,77.3325062,,,
node,5760523137,,,,,4582,39.6762111,70.6320047,,,
node,2147902802,Zhyldyz,Zhyldyz,Жылдыз,Жылдыз,4580,42.9134772,77.2706722,,,
node,5578960608,Akgul,Akgul,Акгюль,,4580,43.0663961,77.313881,,,
node,5604554293,Перо,,,,4580,41.943412,77.75292,,,
node,5767976022,Какойлес,,,,4580,39.4746198,71.2622987,,,
node,9919430666,,,,,4580,39.9394223,73.6499404,,,
node,10247146767,,,,,4580,42.1900548,79.336524,,,
node,1867556557,,,,,4579,42.2681881,78.8987514,,,
node,5767976444,,,,,4575.8,39.4869711,71.3041362,,,
node,2593036287,,,,,4575,39.3246593,74.764094,,,
node,2598261576,,,,,4575,39.0304556,74.9267339,,,
node,3345999077,,,,,4574,42.4834121,74.5676797,,,
node,11818683665,100 years of Communism,100 years of Communism,100 лет Коммунизма,Коммунизмге 100 жыл,4574,42.9041446,77.2031327,,,
node,2959677443,Pic Alpini,,,,4573,41.0989622,77.451973,,,
node,2593036297,,,,,4570,39.3282109,74.1033015,,,
node,2593146340,,,,,4570,39.2917804,74.7873265,,,
node,3348588610,Изыскатель,,,,4570,42.5056503,74.5603686,,,
node,5604556428,Robert,Robert,,,4570,40.903732,75.634236,,,
node,5604556434,Darshana,Darshana,,,4570,41.0090361,75.8967889,,,
node,11137546877,Kantbastau,Kantbastau,Кантбастау,Кантбастау,4570,42.8930043,77.1743803,,,
node,12385459887,Сорокина,,Сорокина,,4568,42.2116236,79.931833,,,
node,2593036131,,,,,4567,39.2855922,74.0127742,,,
node,2626958787,,,,,4567,39.1218348,73.970573,,,
node,5767976996,,,,,4567,39.5402511,71.2623162,,,
node,1740226632,Bogatyr Bastygy,Bogatyr Bastygy,Богатырь Главный,,4566,43.0464518,77.2337499,,,
node,2589812536,,,,,4565,41.9242428,79.8802677,,,
node,2596899026,,,,,4565,39.1256519,74.9796199,,,
node,5604556427,Shagyl,Shagyl,,,4565,40.901575,75.611194,,,
node,5604553172,Длинный шпиль,,,,4564,41.078819,77.311719,,,
node,2626959286,,,,,4563,39.3009798,73.7989831,,,
node,7659992048,,,,,4563,39.0901346,69.659435,,,
node,5767976409,,,,,4562.2,39.4891511,71.3854262,,,
node,1740226442,Zhusandykungey,Zhusandykungey,Жусандыкунгей,Жусандыкүңгөй,4562,43.0048311,77.2497394,,,
node,3352712325,,,,,4562,42.5123576,74.7654541,,,
node,5604554269,28 Панфиловцев,,,,4562,42.0383972,77.7979528,,,
node,1867556473,,,,,4561,42.0805312,78.3780312,,,
node,5604556441,,,,,4561,41.048639,76.138453,,,
node,1740226598,Kalesnik,Kalesnik,Калесника,,4560,43.0401538,77.23646,,,
node,1867556451,,,,,4560,42.0044072,78.9323473,,,
node,1867556472,,,,,4560,42.0789524,78.5514297,,,
node,2117832129,Mnich,Mnich,,,4560,40.4992691,74.9064459,,,
node,5604554616,,,,,4560,41.8540276,77.0782756,,,
node,5604556431,Inek,Inek,,,4560,41.018803,75.899715,,,
node,5604556438,Apa,,,,4560,40.90797,75.628852,,,
node,5760392711,Алтай,,,,4560,39.6395832,71.5464328,,,
node,5767976052,,,,,4560,39.5785084,71.3994224,,,
node,6854463945,Kaliningrad,Kaliningrad,Калиниград,,4560,41.1550594,77.7887907,,,
node,3660079882,Alma-Ata,Alma-Ata,Алма-Ата,Алма-Ата,4558,42.9282033,77.2629163,,,
node,5767976356,,,,,4558,39.5449911,71.4166662,,,
node,2626958826,,,,,4557,39.156548,73.609857,,,
node,1867556510,,,,,4556,42.1625478,78.5904052,,,
node,11818683666,Zhoyutau,Zhoyutau,Жоютау,Жоютау,4556,42.9074251,77.2162955,,,
node,7920270576,Kokbulak,Kokbulak,Кокбулак,,4555,43.1180057,77.4053771,,,
node,1740226648,Severtsov,Severtsov,Северцова,,4553,43.0509182,77.2306329,,,
node,5604555742,Чонташ Восточный,,,,4553,40.9165667,74.4301667,,,
node,5767976412,,,,,4553,39.5105784,71.3675877,,,
node,10076718732,,,,,4553,40.1249144,73.7882566,,,
node,5767976407,,,,,4550.1,39.497894,71.3963557,,,
node,2117817765,,,,,4550,41.9229996,79.8028173,,,
node,5604556433,Dom Beliy,Dom Beliy,,,4550,41.0175528,75.9096278,,,
node,5767976974,,,,,4550,39.4922211,71.2096162,,,
node,7653467459,Chekist,Chekist,Чекист,,4550,43.105728,77.2972654,,,
node,10218666408,,,,,4550,42.165646,79.6748686,,,
node,2598261600,,,,,4547,39.0497594,74.9443585,,,
node,5604556442,,,,,4546,41.0530222,76.1665167,,,
node,5604554295,Кама,,,,4545,41.9316,77.74865,,,
node,5767976039,Пермская,,,,4545,39.5351611,71.3490062,,,
node,1740226624,Ontustyk Bogatyr,Ontustyk Bogatyr,Богатырь Южный,,4544,43.043963,77.2317657,,,
node,5767976987,,,,,4543,39.5703511,71.2692762,,,
node,2117832033,Vulture,Vulture,,,4542,40.4974469,74.9124562,,,
node,2589812510,,,,,4542,41.8880909,79.8166145,,,
node,10076718728,Kichi Kashkasu,Kichi Kashkasu,,,4542,40.1366939,73.7939214,,,
node,9957577905,,,,,4541,42.0956749,77.8981841,,,
node,2593135393,,,,,4540,39.1735253,74.0589823,,,
node,3344802063,,,,,4537,42.5418861,74.7894345,,,
node,2626958837,,,,,4535,39.1643138,73.9169773,,,
node,5604555315,,,,,4535,41.767826,77.651724,,,
node,5767976358,,,,,4535,39.5233687,71.4054868,,,
node,1867556549,,,,,4533,42.2419945,78.6683311,,,
node,2589838802,,,,,4531,41.9356207,79.7690347,,,
node,5767976453,,,,,4531,39.5073711,71.2894862,,,
node,2068262482,Uchitel,Uchitel,Учитель,,4530,42.5380201,74.5530646,,,
node,2117850927,别勒阿依热克佐苏套,,,,4530,39.8772503,73.9123341,,,
node,2589812567,,,,,4530,41.9720502,79.9322666,,,
node,2593135376,,,,,4530,39.1455131,74.0076848,,,
node,5604556443,,,,,4530,40.933154,75.695294,,,
node,5767976048,,,,,4530,39.5886058,71.459621,,,
node,5767976956,,,,,4530,39.4312542,71.0534978,,,
node,6687148272,,,,,4530,41.9285713,77.0145035,,,
node,9592100184,Главный Курган,,,,4528,40.0198367,72.7387625,,,
node,10251066012,,,,,4528,41.8062215,77.9126787,,,
node,5767976527,,,,,4527,39.4213111,71.1040262,,,
node,9592100171,Агидель,,,,4527,39.9779752,72.7236557,,,
node,11987843843,,,,,4525,40.027455,73.9056892,,,
node,2956442833,Чарат Центральный,,,,4523,39.9771094,72.6415288,,,
node,5604556444,,,,,4523,41.052277,76.14912,,,
node,1740226337,Konstituciya,Konstituciya,Конституции,,4522,42.9825713,77.1661347,,,
node,1867556455,,,,,4522,42.018164,78.3992846,,,
node,2626958797,,,,,4521,39.1377456,73.9896941,,,
node,5742772086,Котин,,,,4521,39.6234744,70.2756786,,,
node,1867556541,,,,,4520,42.2319427,78.6077669,,,
node,3345999025,Амантоо,,Амантоо,,4520,42.4616279,74.6407991,,,
node,5767976036,,,,,4520,39.5961248,71.4945777,,,
node,10114175656,Kotlyakov,Kotlyakov,Котлякова,,4520,42.999695,77.2891383,,,
node,10244303852,Солодовникова,,,,4520,42.3426542,80.120244,,,
node,13597417972,Lysenko,Lysenko,Лысенко,,4520,42.9424034,77.2563557,,,
node,2626958848,,,,,4519,39.1718992,73.5841908,,,
node,3005512675,Байчечекей,,,,4515,42.52982,74.55663,,,
node,1740257142,Bivachnaya,Bivachnaya,Бивачная,,4514,43.0817068,77.3098749,,,
node,5767976993,,,,,4512,39.5527611,71.2482662,,,
node,10246532002,Kurmangazy,Kurmangazy,Курмангазы,Курмангазы,4512,42.9121168,77.2358086,,,
node,7315161564,,,,,4511,39.7069205,71.8616688,,,
node,5604556425,Sumashedshaya,,,,4510,40.8902,75.667723,,,
node,5604556458,,,,,4510,40.6447222,74.5011111,,,
node,1740257147,Surovyy,Surovyy,Суровый,,4509,43.0832337,77.3185064,,,
node,1867556546,,,,,4509,42.2382088,78.826003,,,
node,1867556553,,,,,4509,42.2693918,78.7951453,,,
node,2596899169,,,,,4509,39.2404319,74.7306122,,,
node,5604555316,,,,,4509,41.77415,77.732112,,,
node,9957578181,,,,,4509,42.0804834,77.8838718,,,
node,11573282031,Kebin,Kebin,Кебин,,4509,43.0480203,77.3295744,,,
node,11987843841,,,,,4509,40.1190982,74.0751959,,,
node,5767351090,,,,,4508,39.6682516,71.7644549,,,
node,5742773021,1000 years,1000 years,,,4507,39.6152134,70.2746128,,,
node,5767976360,,,,,4507,39.5098811,71.4132762,,,
node,5767976031,,,,,4505,39.5865511,71.4918762,,,
node,5767976415,,,,,4504,39.622361,71.3297362,,,
node,2589838828,,,,,4503,41.9867493,79.7519691,,,
node,5767976051,,,,,4503,39.5716411,71.4351362,,,
node,3345999280,Кургактор,,,,4502,42.5435644,74.5883311,,,
node,1740257090,Uzlovaya,Uzlovaya,Узловая,,4501,43.0733687,77.3097638,,,
node,775964887,,,,,4500,39.7996593,72.5878029,,,
node,2598261591,,,,,4500,39.0386911,74.9817419,,,
node,5604555313,Ленинградская,,,,4500,41.750423,77.674862,,,
node,9217874124,,,,,4500,39.5723516,69.9912786,,,
node,10218667101,,,,,4500,42.0765336,79.3040371,,,
node,3345999265,,,,,4498,42.5367554,74.5845087,,,
node,5767976984,,,,,4496.7,39.4840544,71.261487,,,
node,1738488742,25 years of Kazakhstan,25 years of Kazakhstan,25 лет Казахстана,,4496,43.0718653,77.4775658,,,
node,2593146298,,,,,4496,39.1722828,74.8072201,,,
node,5604554294,Котор,,,,4496,42.0752373,78.2132621,,,
node,12241648691,,,,,4496,42.8895746,77.2464233,,,
node,3338501135,,,,,4495,42.4380411,74.9161577,,,
node,2596899039,,,,,4493,39.1282413,75.0217706,,,
node,5604552020,Big Sister,,,,4492,40.486254,75.090293,,,
node,5604555312,Олимпийская,,,,4492,41.7347,77.5894,,,
node,2626958800,,,,,4491,39.1411442,73.6102996,,,
node,775952211,Ак-Джаман,,,,4490,40.9082423,74.8228524,,,
node,2147913007,Dmitriev,Dmitriev,Дмитриева,,4490,42.9687961,77.1555274,,,
node,5604556429,Pt Atta,,,,4490,41.016637,75.910998,,,
node,5767976050,,,,,4490,39.596941,71.4215762,,,
node,6532907171,Птица,,,,4490,39.528009,70.2944565,,,
node,2956442846,Чарат Запдный,,,,4488,39.9787122,72.6340716,,,
node,3344802100,пик Компартии Киргизии,,пик Компартии Киргизии,,4488,42.5549599,74.7988677,,,
node,1867556513,,,,,4486,42.1825938,78.769551,,,
node,2147912636,Zhangyryk,Zhangyryk,Жангырык,Жангырык,4485,42.928433,77.2235222,,,
node,2598261580,,,,,4485,39.0324878,75.0370941,,,
node,7795485766,,,,,4485,39.0950749,69.5363739,,,
node,10560169443,Шарт,,,,4485,39.7948987,73.5326743,,,
node,1532529409,Манас,,Манас,,4484.3,42.3218934,71.0214711,,,
node,11155837754,Торттор,,,,4484,42.7559553,76.7972543,,,
node,11591956701,Torpedo,Torpedo,Торпедо,,4483,42.9479955,77.1521925,,,
node,3363499367,Безымянная,,,,4482,39.8239066,71.8231881,,,
node,5757204160,Пирамида,,,,4482,39.6982574,70.6005313,,,
node,12241648693,,,,,4482,42.8908084,77.2230455,,,
node,1740226430,,,,,4481,43.0011968,77.2687568,,,
node,2589812483,,,,,4481,41.8541622,79.7748849,,,
node,1740226458,Muryntau,Muryntau,Мурынтау,,4480,43.0107663,77.2348815,,,
node,5604556426,Stefan,Stefan,,,4480,41.019765,75.915719,,,
node,5604556430,Kumur-Ay,Kumur-Ay,,,4480,40.895991,75.65663,,,
node,3346060530,Teke-Tor,Teke-Tor,,,4479,42.511645,74.5224855,,,
node,5604555301,Географов,,,,4479,41.923716,76.981669,,,
node,11816733279,,,,,4478,42.8159123,77.0539429,,,
node,9911548912,10 years of Kazakhstan,10 years of Kazakhstan,им. 10 лет Казахстана,Казакстанга 10 жыл,4477,42.9948916,77.1967131,,,
node,12998846261,Akyrgytau,Akyrgytau,Акыргытау,,4477,42.9367706,77.2791427,,,
node,10121403448,Бактуу Долоноту,,,,4476,42.8141677,77.0697681,,,
node,2956442875,Кукрыниксы Главный,,,,4474,39.9928718,72.6419828,,,
node,9911553512,,,,,4474,42.9871852,77.1941501,,,
node,5767976520,,,,,4473,39.644341,71.7892549,,,
node,2441331561,Джипак,,Джипак,,4472,39.4705811,72.8838398,,,
node,13598692659,Zhanatau,Zhanatau,Жанатау,,4471,42.9346017,77.3245451,,,
node,1740226672,Svyazist,Svyazist,Связист,,4470,43.0556661,77.2422446,,,
node,5604556439,Altyn-Ay,Altyn-Ay,,,4470,40.8928722,75.6585472,,,
node,5604556459,,,,,4470,40.6327778,74.5291667,,,
node,5767976545,пик Осонали,,,,4469,39.6489556,71.7631244,,,
node,5607878563,Сарыкучук,,,,4468,39.9487333,73.65375,,,
node,7920272498,Ledyanaya stena,Ledyanaya stena,Ледяная стена,,4468,43.0787749,77.457919,,,
node,1740226321,Miroshkin,Miroshkin,Мирошкина,,4467,42.9784963,77.1741707,,,
node,5767976965,,,,,4467,39.5049311,71.1261062,,,
node,2626958988,,,,,4466,39.2075896,73.9162556,,,
node,13006993542,50 years of Kazakhstan,50 years of Kazakhstan,50 лет Казахстана,,4466,42.934722,77.2217281,,,
node,5578960873,Muztau,Muztau,Музтау,Музтау,4465,42.9963046,77.2117639,,,
node,9284239065,Огни святого Эльма,,,,4465,41.7684627,77.6677187,,,
node,1740226467,SGU,SGU,СГУ,,4464,43.0151212,77.113621,,,
node,5604555793,Караджилга,,,,4464,41.3213837,77.4731023,,,
node,1867556447,Таштамбектор-Баши,,,,4463,42.3529317,78.8310287,,,
node,2117850956,,,,,4462,39.8919392,73.9173468,,,
node,2589812462,,,,,4462,41.8348043,79.9195518,,,
node,5767976454,,,,,4462,39.5479311,71.3049562,,,
node,2596899184,,,,,4460,39.2581333,74.7648859,,,
node,5604556432,Eki-Bash,Eki-Bash,,,4460,40.900057,75.65918,,,
node,5767351125,,,,,4460,39.653971,71.7253762,,,
node,10246532020,Bilimtau,Bilimtau,Билимтау,Билимтау,4460,42.9141205,77.3230666,,,
node,11591936701,,,,,4460,43.0339435,77.2392133,,,
node,13597422726,50 years of Kazakhstan Pravda,50 years of Kazakhstan Pravda,50 лет Казахстанской правды,,4460,42.9446887,77.2577036,,,
node,2956442865,Кукрыниксы Южный,,,,4459,39.9908071,72.6480101,,,
node,5767976456,,,,,4458.4,39.4979809,71.2979436,,,
node,10848438710,,,,,4458,42.9678264,77.5326787,,,
node,3338501413,,,,,4457,42.4782625,74.8278611,,,
node,5767976990,,,,,4457,39.5573011,71.2458662,,,
node,5767976404,,,,,4456.3,39.4831561,71.379222,,,
node,5578960410,Bakayir-Choku,Bakayir-Choku,Бакаир-Чоку,Бакайыр-Чоку,4455,42.2668028,71.2713972,,,
node,2314876825,,,,,4454,39.0474345,69.0762547,,,
node,5767976971,,,,,4454,39.5174611,71.1204162,,,
node,5767976991,,,,,4453,39.548869,71.265403,,,
node,3218568944,MUD,MUD,МЮД,,4452,43.0672135,77.2387735,,,
node,5605661136,Astana,Astana,Астана,,4451,42.3405261,80.2375844,,,
node,5767976403,,,,,4450.4,39.4869711,71.3943662,,,
node,3336726213,пик Свободы,,пик Свободы,,4450,42.4540682,74.744007,,,
node,5604553122,,,,,4450,41.3577778,76.4772222,,,
node,5604555792,Первенец,,,,4450,41.3204861,77.5845139,,,
node,5765369706,,,,,4450,39.5911902,70.261281,,,
node,10247146805,,,,,4450,42.2229243,79.4162178,,,
node,5767976522,Кара-Суу,,,,4448,39.614811,71.7946662,,,
node,7920272568,30 years of Kazakhstan,30 years of Kazakhstan,30 лет Казахстана,,4448,43.0777046,77.5059606,,,
node,2386081990,Suleiman Stalsky,Suleiman Stalsky,Сулеймана Стальского,,4447,43.0756209,77.2330611,,,
node,2596899019,,,,,4446,39.1066825,74.9693588,,,
node,3340467227,,,,,4446,42.4700166,74.9920264,,,
node,3348588418,Vladimir Putin Peak,Vladimir Putin Peak,Пик Владимира Путина,Владимир Путин атындагы чоку,4446,42.4713175,74.1574363,,Q1498647,en:Vladimir Putin Peak
node,5767976992,,,,,4445,39.5505711,71.2443162,,,
node,3345998954,Разноцветная,,Разноцветная,,4444,42.4356767,74.612564,,,
node,11591744913,,,,,4444,43.0748782,77.3682649,,,
node,11818683667,Nayzatau,Nayzatau,Найзатау,Найзатау,4444,42.9035246,77.3419132,,,
node,2598261633,,,,,4442,39.0767333,74.9051388,,,
node,5604554301,,,,,4440,41.963141,77.77338,,,
node,11573366592,,,,,4440,43.0674162,77.4289045,,,
node,3345910478,Медик,,,,4437,42.4516536,74.5149924,,,
node,3338501284,,,,,4433,42.4721218,74.8187416,,,
node,11293572147,Makataev,Makataev,Макатаева,,4433,42.3711049,80.1329886,,,
node,1740226366,,,,,4432,42.991559,77.2153986,,,
node,9680266136,Джалан-Каныш,,,,4432,40.0690954,72.7240786,,,
node,11155837758,,,,,4432,42.874183,77.221627,,,
node,7920272566,Trapeze,Trapeze,Трапеция,,4431,43.082244,77.5143447,,,
node,3644612933,Frunze,Frunze,Фрунзе,,4430,43.0762311,77.227752,,,
node,5767976954,,,,,4430,39.4100011,71.0388162,,,
node,10178995344,Каратума,,,,4430,40.372754,74.0492457,,,
node,1740226126,,,,,4428,42.9340825,77.1297785,,,
node,12421818279,,,,,4428,42.8996481,77.2550839,,,
node,1738488783,Belyj Kogot',Belyj Kogot',Белый Коготь,,4427,43.0814779,77.5196461,,,
node,1740256911,,,,,4427,43.0485365,77.3610246,,,
node,2117690562,,,,,4427,42.3420186,80.2458182,,,
node,2147900977,Ашутер Новый,,,,4427,42.4367129,79.9639785,,,
node,5607878566,,,,,4427,40.1577056,73.9138306,,,
node,2117690583,Kazakh club of climbers,Kazakh club of climbers,Казахского клуба альпинистов,,4426,42.3584775,80.2265665,,,
node,3338501167,,,,,4425,42.4454709,74.8712217,,,
node,11816733283,Суровый,,,,4425,42.8078556,76.9218982,,,
node,2956442775,Жаштык Малый,,,,4424,39.9668778,72.6974708,,,
node,3346060352,пик Грязнова,,,,4424,42.4749379,74.5359492,,,
node,1867556467,,,,,4422,42.0619784,78.0052675,,,
node,9285318797,пик Розенталя,,,,4422,41.765632,77.6146579,,,
node,11816733284,,,,,4422,42.7833713,76.8639609,,,
node,3345910431,Ак-Дувал,,,,4421,42.4385303,74.4967647,,,
node,5604554557,ПНИПУ,,,,4421,41.8631333,77.5372583,,,
node,10848742364,Borodin,Borodin,Бородина,Бородин,4420,42.9167496,77.2950775,,,
node,2626959315,,,,,4417,39.303473,73.8513049,,,
node,3353072353,Обелиск,,Обелиск,,4416,42.4140231,74.6322481,,,
node,9364978159,Y. Abalakov,Y. Abalakov,Е. Абалакова,Э. Абалаков,4416,42.974455,77.103486,,,
node,2589812541,,,,,4412,41.9311822,79.8263562,,,
node,3338501499,Кочеты-Ашуу,,Кочеты-Ашуу,,4412,42.5063659,74.9059463,,,
node,9979001750,,,,,4412,41.8785323,77.6817625,,,
node,1740226444,Togyzak,Togyzak,Тогызак,,4411,43.0055024,77.2247795,,,
node,5767976970,,,,,4411,39.5068111,71.1582462,,,
node,1740226674,Ordzhonikidze,Ordzhonikidze,Орджоникидзе,,4410,43.0569051,77.1136256,,,
node,1740256848,,,,,4410,43.0383225,77.2628988,,,
node,1867556463,,,,,4410,42.0394026,78.4846621,,,
node,2596899095,,,,,4410,39.1606415,75.0147091,,,
node,5767976549,,,,,4410,39.4139211,71.0062262,,,
node,10707736624,,,,,4410,41.4118312,72.9123271,1690,,
node,13597373669,Glinka,Glinka,Глинки,Глинка,4410,42.9178661,77.2674851,,,
node,3336576847,Чёртов Палец,,,,4409,42.5408083,74.7302089,,,
node,5765743146,,,,,4409,39.6922246,70.7170189,,,
node,11816733282,,,,,4409,42.8041246,76.9533285,,,
node,1738488942,Turgen,Turgen,Тургень,,4407,43.1084764,77.5951481,,,
node,2626959109,,,,,4407,39.231362,73.8363633,,,
node,3336726522,,,,,4405,42.5391871,74.7446551,,,
node,13310761580,,,,,4405,43.0018709,77.2763066,,,
node,5767977004,,,,,4403,39.4767511,71.3521462,,,
node,12295850617,Agatau,Agatau,Агатау,Агатау,4403,42.9277427,77.2129883,,,
node,1740226420,,,,,4402,43.0003139,77.2448571,,,
node,1740226445,Molodaya gvardiya,Molodaya gvardiya,Молодая гвардия,Молодая гвардия,4402,43.0067465,77.0851641,,,
node,1740256842,,,,,4402,43.0384558,77.3334921,,,
node,5767976497,,,,,4402,39.3566111,71.1143062,,,
node,7341569952,,,,,4402,39.5266612,71.2126708,,,
node,2589838796,,,,,4401,41.9287828,79.7537469,,,
node,10226210195,Исследователей Тянь-Шаня,,Исследователей Тянь-Шаня,,4401,42.3130525,79.8490191,,,
node,1740226516,SASHIA,SASHIA,САШИА,,4400,43.0247487,77.2272609,,,
node,1740226685,,,,,4400,43.060851,77.2503262,,,
node,5604554559,Осетрова,,,,4400,41.8674111,77.5578528,,,
node,5604555744,,,,,4400,41.4409892,77.4056232,,,
node,5605661056,"ДСО ""Зенит""",,"ДСО ""Зенит""","ДСО ""Зенит""",4400,42.0864111,78.8423972,,,
node,5607878564,"пик ТК ""Меридиан""",,,,4400,40.1230444,73.797325,,,
node,11591921211,,,,,4398,43.0655266,77.2817193,,,
node,2589993773,,,,,4397,39.0044312,75.1322995,,,
node,5604554560,Обеднина,,,,4397,41.8733639,77.5904083,,,
node,10244303832,Тренировочный,,,,4397,42.3365954,80.1741242,,,
node,11591744910,,,,,4397,43.0513686,77.3781549,,,
node,2595063205,Пик Ильяса Тухватуллина,,Пик Ильяса Тухватуллина,,4395.5,42.1826651,71.2484802,,,
node,1867556481,,,,,4395,42.1093648,78.4656154,,,
node,2626959361,,,,,4395,39.3118738,73.812748,,,
node,3345910401,Снежная,,Снежная,,4394,42.4295782,74.605086,,,
node,13008972086,Ehdel'shtejn,Ehdel'shtejn,Эдельштейн,Эдельштейн,4394,42.9021104,77.189634,,,
node,1740226385,,,,,4393,42.9953149,77.3048369,,,
node,2626958610,,,,,4393,39.0085916,73.9549752,,,
node,9911548911,Soviet Kazakhstan,Soviet Kazakhstan,Советский Казахстан,Советтик Казакстан,4392,42.9976381,77.2194153,,,
node,5578960827,Partisan,Partisan,Партизан,,4390,43.0530708,77.1127427,,,
node,5604556445,,,,,4390,41.062011,76.131754,,,
node,5767976988,,,,,4390,39.5336205,71.2247729,,,
node,5767976994,,,,,4390,39.5517911,71.2520462,,,
node,6027616709,,,,,4390,39.3602215,70.1139128,,,
node,10247147173,,,,,4390,42.2418943,79.4950962,,,
node,10247147224,,,,,4390,42.2277876,79.5641722,,,
node,12203518112,,,,,4390,42.9833925,77.1612851,,,
node,1859950518,,,,,4388,42.4296092,75.1466278,,,
node,1740226196,Legostaev,Legostaev,Легостаева,Легостаев,4387,42.947315,77.034193,,,
node,11747517684,,,,,4386,42.9760973,77.1757603,,,
node,1740226338,Kazakh National University,Kazakh National University,Казахского Национального Университета,,4385,42.9829646,77.2298852,,,
node,3338501249,,,,,4385,42.463889,74.8258468,,,
node,8208289269,,,,,4385,41.3686852,76.3266767,,,
node,2626958821,,,,,4383,39.1552118,73.5890687,,,
node,1916150890,Иссык-Ата,,Иссык-Ата,,4382,42.4201645,74.7661216,,,
node,5767976032,,,,,4382,39.5690811,71.4933562,,,
node,2589812535,,,,,4381,41.9231927,79.8487264,,,
node,12248822454,,,,,4381,42.7636458,76.6482425,,,
node,7653467458,Salanov,Salanov,Саланова,,4380,43.1001176,77.3011443,,,
node,2593146324,,,,,4379,39.2136535,74.9583586,,,
node,5604555299,Перевальный,,,,4379,41.972947,77.437288,,,
node,1740226477,Soviet Mountaineers,Soviet Mountaineers,Советских альпинистов,Советтик Альпинисттердин,4378.8,43.0171282,77.0985925,,,
node,1740256993,,,,,4378,43.0588993,77.2853049,,,
node,5604556460,,,,,4378,40.5744444,74.6166667,,,
node,5743745497,Усен,,,,4378,39.6045309,70.2611947,,,
node,5604553160,Спутник надежды,,,,4376,41.088071,77.301333,,,
node,2596899232,,,,,4375,39.2777736,74.8447342,,,
node,5767976979,,,,,4375,39.5191311,71.1910762,,,
node,11591956704,Tupsytau,Tupsytau,Тупсытау,,4375,42.9466126,77.1763841,,,
node,12241648703,,,,,4375,42.8830036,77.20761,,,
node,1738488868,Pal'gov,Pal'gov,Пальгова,,4372,43.0973535,77.5406018,,,
node,11816733280,,,,,4372,42.8143536,77.0415117,,,
node,11502627782,ЦСКА,,ЦСКА,,4371,42.9738027,77.1425138,,,
node,7707491587,Bliznetsy,Bliznetsy,Близнецы,,4370,43.0936911,77.3537795,,,
node,11693840646,,,,,4370,42.995337,77.3117115,,,
node,3345910415,,,,,4367,42.43153,74.5910248,,,
node,10142795650,,,,,4367,42.7858511,76.9595086,,,
node,3352709256,,,,,4366,42.4999113,74.7613667,,,
node,11591754696,,,,,4366,43.0618611,77.4259186,,,
node,1740226475,Soviet Mountaineers' Western,Soviet Mountaineers' Western,Советских альпинистов Западный,,4365,43.0171225,77.093353,,,
node,5605660904,МГМИ,,,,4365,42.2063456,78.5782286,,,
node,2596277539,,,,,4364.5,42.1369175,71.2152977,,,
node,10853146630,,,,,4364,42.8084561,76.9801256,,,
node,1740226513,Kyyragantau,Kyyragantau,Кыйрагантау,,4362,43.024006,77.2070392,,,
node,1867556469,,,,,4361,42.0758385,78.9532284,,,
node,3345910438,пик Логвиненко,,,,4361,42.4409751,74.4832849,,,
node,5767977003,,,,,4360.2,39.4713911,71.3613062,,,
node,1861557810,Adygene,Adygene,,,4360,42.5316125,74.4140773,,,
node,2594926520,,,,,4359.7,42.1851745,71.1391897,,,
node,3344802038,,,,,4359,42.5253809,74.7650177,,,
node,2593688895,,,,,4358.4,42.2110015,71.250527,,,
node,7920272575,Kassin,Kassin,Кассина,,4358,43.1101549,77.5417437,,,
node,3345910425,,,,,4357,42.4375733,74.5051574,,,
node,1738488969,Turgenev,Turgenev,Тургенева,,4356,43.1126192,77.5468466,,,
node,1859831075,,,,,4356,42.0322083,75.9115105,,,
node,6687148254,,,,,4356,41.9413252,77.0423233,,,
node,1740257140,,,,,4355,43.0816813,77.3771325,,,
node,2626958788,,,,,4354,39.1226596,73.6139538,,,
node,11816733278,,,,,4354,42.8103739,77.1182975,,,
node,12241648692,,,,,4354,42.8828581,77.2192136,,,
node,1740226508,Pushkin,Pushkin,Пушкина,,4353,43.023964,77.1925462,,,
node,5767976357,,,,,4353,39.5149711,71.4329762,,,
node,5604554561,Коробейникова,,,,4352,41.8787,77.6044861,,,
node,13011747281,Snezhnye zub'ya,Snezhnye zub'ya,Снежные зубья,,4352,42.8193513,77.0849029,,,
node,5604555743,Kremen,Kremen,,,4351,40.9100667,74.6549167,,,
node,1889324655,Независимости Арабов,,Независимости Арабов,Арабдын көз карандысыздыгы,4350,42.4597458,74.2770623,,,
node,2627097332,,,,,4350,39.0161816,75.1102681,,,
node,3345910423,пик Токтогула,,,,4350,42.4366421,74.4785303,,,
node,5604555773,,,,,4350,41.4687412,77.5300648,,,
node,9394854394,Kuandytau,Kuandytau,Куандытау,Куандытау,4350,42.9084718,77.333196,,,
node,10086900826,пик Александры,,,,4350,40.0938574,73.9246426,,,
node,11573450401,,,,,4350,43.0510016,77.3694616,,,
node,13009109528,Dvurogij,Dvurogij,Двурогий,Двурогий,4349,42.8140403,77.0842673,,,
node,11591936697,OPTE,OPTE,ОПТЭ,,4348,43.0719023,77.2739329,,,
node,5578960349,Чаткальская Ушба,,,,4347,41.9597547,71.8049014,,,
node,1740256815,,,,,4346,43.0323376,77.339534,,,
node,5607878565,Кичиколь,,,,4346,40.1307139,73.8429028,,,
node,5767976998,,,,,4346,39.5371451,71.2992026,,,
node,1738488664,,,,,4345,43.0523282,77.4280747,,,
node,5604553789,Марс,,,,4345,42.0072642,78.0895578,,,
node,5605660833,пик Тельмана,,,,4345,42.2217822,78.4505545,,,
node,11477712560,Gorodetsky,Gorodetsky,Городецкого,Городецкий,4345,42.9755355,77.0774357,,,
node,12142097071,г. Марс,,,,4345,42.0054796,78.0887863,,,
node,1740226128,,,,,4343,42.9345408,77.1082874,,,
node,5604552014,Middle Sister,,,,4341,40.4912256,75.0870147,,,
node,5605660858,50-лет Труду,,,,4341,42.2442687,78.5927229,,,
node,1867556565,,,,,4340,42.3101609,78.9416477,,,
node,5605660835,пик Тамма,,,,4340,42.2034985,78.5150536,,,
node,1740226416,,,,,4339,42.9996942,77.3478006,,,
node,5725019924,,,,,4339,41.7936007,76.9321866,,,
node,12996063133,Kuzdybastau,Kuzdybastau,Куздыбастау,,4338,42.9262409,77.3389328,,,
node,5767350657,,,,,4337,39.5767841,71.3754272,,,
node,5767976043,,,,,4337,39.5184018,71.3269436,,,
node,12241649029,Aksu,Aksu,Аксу,Аксу,4337,42.8365233,77.1239992,,,
node,1740226162,Koshtau,Koshtau,Коштау,Коштау,4336,42.9408647,77.1911473,,,
node,1740226426,,,,,4336,43.0008991,77.3400364,,,
node,11462243687,Сарыкудук,,,,4336,42.7635687,76.755616,,,
node,11536253776,Frunze Western,Frunze Western,Фрунзе Западный,,4335,43.0721045,77.220919,,,
node,11591763745,Koshtau,Koshtau,Коштау,,4335,43.0778829,77.4981426,,,
node,3336726189,,,,,4334,42.4279062,74.6207422,,,
node,11664634133,,,,,4332,42.9877055,77.2286683,,,
node,2598261555,,,,,4331,39.019439,74.9617239,,,
node,11816733281,,,,,4331,42.8095801,77.006426,,,
node,1740226818,Almaty,Almaty,Алматинский,,4330.9,43.0860537,77.1201239,,,
node,10121403447,Ай-Тёр,,,,4330.7,42.8146374,77.2119271,,,
node,2956442872,Кукрыниксы Западный,,,,4330,39.9930351,72.627182,,,
node,13011865718,Keminskie bashni,Keminskie bashni,Кеминские башни,Кеминские башни,4329,42.9312894,77.2083294,,,
node,3340467233,,,,,4328,42.4783331,74.9952101,,,
node,2589993792,,,,,4325,39.0183946,75.2172631,,,
node,8832184395,пик Ажурный,,,,4325,41.7944958,77.820302,,,
node,6121472190,Джумас,,,,4324,39.9103097,72.3858292,,,
node,12188566090,,,,,4322,42.9291077,77.5192961,,,
node,1740226314,Sarym Kuderin,Sarym Kuderin,Сарыма Кудерина,Сарым Кудерин,4321,42.9771217,77.061738,,,
node,1867556567,,,,,4321,42.3140363,78.7368679,,,
node,2589812466,,,,,4321,41.8381802,79.799776,,,
node,9385093277,Пик Мун,,,,4321,42.7724129,76.7309269,,,
node,11591754702,,,,,4321,43.0766888,77.4312605,,,
node,1738488614,Shubararsha,Shubararsha,Шубарарша,,4320,43.0333138,77.4239453,,,
node,1738488894,Belaya SHapka,Belaya SHapka,Белая Шапка,,4320,43.1011798,77.4311013,,,
node,5605660848,пик Аютор,,,,4320,42.2837975,78.4137336,,,
node,5767976495,,,,,4320,39.3444011,71.1192362,,,
node,10076719909,,,,,4319.8,39.9554777,73.6209297,,,
node,2594926525,Shavur-Say,Shavur-Say,Шавур-Сай,,4319.0,42.2015359,71.1226018,,,
node,2627514412,,,,,4319,39.0135023,75.1500514,,,
node,2117817704,,,,,4318,41.9019011,79.7528622,,,
node,5604556461,,,,,4318,40.6113889,74.5763889,,,
node,13011787774,Bosteri,Bosteri,Бостери,Бостери,4318,42.8174952,77.1133012,,,
node,1012904503,Sovetov,Sovetov,Советов,,4317.0,43.02453,77.0364465,,Q18044922,ru:Пик Советов
node,1740226755,Mramornyj,Mramornyj,Мраморный,,4317,43.0727859,77.2155006,,,
node,3345999030,Тарановой,,,,4317,42.4639331,74.5457277,,,
node,1867556464,,,,,4315,42.0482569,78.1233072,,,
node,12241648689,,,,,4315,42.8964058,77.2892684,,,
node,1889320557,,,,,4314,42.4416185,74.3134669,,,
node,5767976424,,,,,4313,39.4978224,71.3580641,,,
node,1859838664,,,,,4312,42.0463634,75.8661647,,,
node,7888009246,Tastyaran,Tastyaran,Тастыаран,,4312,43.1035833,77.5473361,,,
node,5767976973,,,,,4311,39.5159111,71.1617462,,,
node,385768288,Panfilov,Panfilov,,,4310,42.5192327,74.4153732,,,
node,1867556543,,,,,4310,42.23148,78.5123668,,,
node,3340467221,,,,,4310,42.4581758,74.9888428,,,
node,5767976995,,,,,4310,39.5392211,71.2795762,,,
node,1859950519,,,,,4309,42.4443996,75.1086222,,,
node,5578960352,Пикгора,,,,4308,41.6493028,71.3068861,,,
node,5767350841,,,,,4308,39.6046278,71.6771381,,,
node,9826616836,Кумбель,,,,4308,40.0609328,72.7332459,,,
node,10246531963,Trapeciya,Trapeciya,Трапеция,Трапеция,4308,42.8101945,77.0954728,,,
node,1738488842,,,,,4306,43.0923525,77.5818473,,,
node,3344802137,Куарча,,,,4306,42.5674883,74.826443,,,
node,3350649448,Манас,,,,4306,42.4477726,74.4883196,,,
node,13597461529,Kazakh club of climbers,Kazakh club of climbers,Казахского клуба альпинистов,,4306,42.9510205,77.2648496,,,
node,11591749083,,,,,4304,43.0121268,77.2937635,,,
node,13011817431,Nemyckij,Nemyckij,Немыцкого,Немыцкий,4304,42.901788,77.1810186,,,
node,3353072352,Восточная Усечёнка,,Восточная Усечёнка,,4303,42.4775984,74.7425064,,,
node,5610390255,Bastion Peak,Bastion Peak,,,4303,39.007141,69.067115,,,
node,12241648705,,,,,4303,42.8776257,77.199701,,,
node,2593585772,,,,,4302.8,42.1701499,71.0199344,,,
node,3344802124,,,,,4302,42.5613811,74.8203972,,,
node,5735891976,,,,,4302,41.9224912,77.2572456,,,
node,10244303829,Александрова,,,,4302,42.3468094,80.1672363,,,
node,12241649030,,,,,4302,42.8521861,77.1267704,,,
node,12241649031,Dom uchenykh,Dom uchenykh,Дом ученых,Дом ученых,4302,42.86237,77.1280947,,,
node,2607456509,Adelunga,Adelunga,Аделунга,,4301.8,42.1235559,70.9689168,,Q355590,ru:Аделунга
node,3345999218,Хрустальный,,,,4300,42.5068449,74.5900819,,,
node,3348588404,Таштор,,,,4300,42.4654666,74.1672346,,,
node,5605660843,пик Делоне,,,,4300,42.2029109,78.5154093,,,
node,5605660898,пик Оттук,,,,4300,42.3418667,78.9737444,,,
node,3346060567,BOKS,BOKS,,,4298,42.5227024,74.5240665,,,
node,2593135289,,,,,4297,39.0053645,74.3527903,,,
node,9285355245,Мушка,,,,4297,41.7688124,77.6242142,,,
node,5767976363,,,,,4296.3,39.4598211,71.4875362,,,
node,7888009304,Adrenalinovoe bezmolvie,Adrenalinovoe bezmolvie,Адреналиновое безмолвие,,4295,43.1022703,77.5837992,,,
node,8668914535,Тосор-Башы,,,,4295,41.9538303,77.3719171,,,
node,2593146337,,,,,4293,39.2692947,74.5526223,,,
node,3338501431,,,,,4293,42.4852403,74.8956288,,,
node,1859950521,,,,,4292,42.4770335,75.1219586,,,
node,6187399655,,,,,4292,39.9814102,72.5790349,,,
node,2607402645,Beshtor,Beshtor,Бештор,,4291.7,42.0541323,70.8651702,,,
node,1740226720,KazTAG,KazTAG,КазТАГ,,4291,43.0670703,77.205175,,,
node,6687148271,,,,,4290,41.9155572,77.0374982,,,
node,8208372317,,,,,4290,41.3521088,76.2806198,,,
node,11477712544,Dostyk,Dostyk,Достык,Достук,4290,42.9700438,77.1266948,,,
node,13008977259,Suuk-Choku,Suuk-Choku,Суук-Чоку,Суук-Чоку,4290,42.920524,77.1994764,,,
node,2374484215,Tsentral'nyy,Tsentral'nyy,Центральный,Центральный,4289,42.9158067,77.308969,,,
node,13009109566,Polosatyj,Polosatyj,Полосатый,,4288,42.8271505,77.0843219,,,
node,3338501517,,,,,4287,42.5124004,74.9242966,,,
node,3338501282,,,,,4286,42.4716571,74.8951283,,,
node,3338501453,,,,,4286,42.4900103,74.903367,,,
node,3336726166,Petrosyanc,Petrosyanc,Петросянца,Петросянц,4285,42.422535,74.8096543,,,
node,5604555020,Teaghan,,,,4285,41.9567583,76.7628861,,,
node,2605899294,,,,,4284.4,42.1318635,71.0326379,,,
node,385811683,Акпай,,Акпай,,4284,42.5218429,74.3439545,,,
node,7341569967,,,,,4284,39.5417374,71.2394071,,,
node,349007653,,,,,4283.0,42.2053285,71.2671899,,,
node,1740226391,,,,,4283,42.9962395,77.3237103,,,
node,11502627789,Meiramtau,Meiramtau,Мейрамтау,,4283,42.9754612,77.1165908,,,
node,11816733277,,,,,4283,42.8095318,77.1315417,,,
node,1738488931,,,,,4282,43.1073297,77.6014857,,,
node,2626959268,,,,,4282,39.2986289,73.8955324,,,
node,9668742505,Маленький принц,,,,4281,39.6785362,71.7609289,,,
node,11591936698,Novgorod,Novgorod,Новгород,,4281,43.0741345,77.2651978,,,
node,2626958613,,,,,4280,39.0103688,73.6508116,,,
node,12374365867,пик Кошевого,,,,4280,42.5492781,74.5457323,,,
node,5767976382,,,,,4279.1,39.3797611,71.4098162,,,
node,2147912905,Leninskaya smena,Leninskaya smena,Ленинская смена,Ленинская смена,4279,42.9542914,77.0333781,,,
node,3345910474,пик Студентов,,,,4279,42.4518317,74.4768471,,,
node,5767976397,,,,,4278.7,39.4591111,71.3910462,,,
node,2398927086,Turan tiger,Turan tiger,Туранского тигра,,4278,43.1224476,77.5546797,,,
node,11696447244,,,,,4278,43.0274712,77.1840693,,,
node,5767976366,,,,,4277.3,39.4663911,71.4819562,,,
node,8244520334,Ulqen Esik,Ulqen Esik,Большой Иссык,,4277,43.170026,77.5046412,,,
node,2593669614,,,,,4276.8,42.237095,71.2089637,,,
node,3336726116,пик Геологов,,пик Геологов,,4276,42.4047303,74.6932672,,,
node,8244520335,Pol'skij,Pol'skij,Польский,,4275,43.130514,77.5435605,,,
node,301100552,Przhevalsky Peak,Przhevalsky Peak,пик Пржевальского,,4272,42.3445257,78.5293294,,,
node,2626959199,,,,,4272,39.2701444,73.8768736,,,
node,1867556550,,,,,4270,42.2502518,78.951539,,,
node,9447577915,пик Дюкло,,,,4270,42.2117287,78.4433269,,,
node,2591280604,,,,,4269.0,42.1644281,70.7365026,,,
node,3172598596,Karaulshetau,Karaulshetau,Караулшетау,,4269,43.1092272,77.2941575,,,
node,1740226524,Pechat,Pechat,Печати,,4268,43.0301464,77.1836537,,,
node,5767976531,,,,,4268,39.3428811,71.0837662,,,
node,2959677445,Pik Freeapproved 2,,,,4267,41.1031735,77.5247452,,,
node,12248328850,,,,,4267,42.8680089,77.2161626,,,
node,12188566092,,,,,4265,42.9384367,77.5337179,,,
node,1738488998,Mechtatel,Mechtatel,Мечтатель,,4264,43.1187544,77.5561759,,,
node,5768091073,,,,,4264,39.7981729,70.8644601,,,
node,8685270893,Dushokha,,,,4264,39.1653973,70.0356305,,,
node,5578958593,Zhambyl,Zhambyl,Жамбыла,,4263,43.0921787,77.2378588,,,
node,5607880124,пик Иргай,,пик Иргай,,4263,39.0983265,71.7334699,,,
node,11503027530,Oleg Koshevoy,Oleg Koshevoy,Олега Кошевого,Олег Кошевой,4263,42.9883083,77.0856791,,,
node,2593135331,,,,,4262,39.0521646,74.3576273,,,
node,13123215547,Novyh gorizontov,Novyh gorizontov,Новых горизонтов,,4262,43.128115,77.547189,,,
node,3338501085,,,,,4261,42.4298641,74.8841757,,,
node,3345999228,,,,,4261,42.5118653,74.6140522,,,
node,8244520337,,,,,4261,43.1148272,77.5183973,,,
node,10244303905,,,,,4261,42.3858833,79.9778167,,,
node,2600846525,,,,,4260.1,42.1526766,71.0911018,,,
node,1867556558,,,,,4260,42.2695924,78.7128353,,,
node,1544318756,,,,,4258.0,42.2040671,70.7809661,,,
node,1859831090,,,,,4258,42.0605231,75.875485,,,
node,385768289,,,,,4257,42.5204053,74.4207131,,,
node,1740226518,Belyj nosorog,Belyj nosorog,Белый носорог,,4256,43.024809,77.2165353,,,
node,1740256743,,,,,4256,43.0160424,77.2610553,,,
node,5767351060,,,,,4256,39.627547,71.7149803,,,
node,13009021733,,,,,4256,42.8491689,77.1245193,,,
node,5767976494,Гулама,,,,4255,39.3463111,71.1370462,,,
node,9429643454,,,,,4255,39.7557783,73.7092295,,,
node,3338501198,,,,,4254,42.4543927,74.8266166,,,
node,1532511172,,,,,4253.0,42.2160023,70.802545,,,
node,1867556502,,,,,4253,42.1521047,78.742527,,,
node,11591959363,,,,,4253,42.952083,77.0685191,,,
node,10176135605,,,,,4252,42.9071503,77.7035623,,,
node,5767976361,,,,,4251.1,39.4834311,71.4859762,,,
node,5578960408,Кумыштаг,,,,4251,42.2633056,71.7960306,,,
node,5767976539,,,,,4251,39.635281,71.7605262,,,
node,2600846361,,,,,4250.9,42.1291811,71.1016086,,,
node,5610390252,Корона Сангхона,,,,4250,39.010279,69.023114,,,
node,5767976521,,,,,4250,39.4685811,71.1228662,,,
node,10567965367,,,,,4250,39.3002849,70.0599089,,,
node,5767977001,,,,,4249.5,39.4799311,71.3472662,,,
node,3336726162,,,,,4249,42.4218459,74.8396575,,,
node,3345910422,,,,,4248,42.4363021,74.5532629,,,
node,13009128503,Stena,Stena,Стена,,4247,42.8356928,77.0870505,,,
node,1738488934,Saz,Saz,Саз,,4246,43.1073139,77.6273703,,,
node,2596899192,,,,,4246,39.2617504,74.8165933,,,
node,10246531980,Nauka,Nauka,Наука,Наука,4246,42.8699469,77.1300034,,,
node,13598703717,,,,,4246,42.940605,77.3327687,,,
node,3345999319,пик Фрунзе,,пик Фрунзе,,4245,42.5594482,74.5890374,,,
node,5734412473,,,,,4245,41.9928341,77.3317771,,,
node,11591861965,Kunanbaev,Kunanbaev,Кунанбаева,,4245,43.1283576,77.333926,,,
node,385768290,Peak Agitator,Peak Agitator,,,4244,42.5485991,74.4102564,,,
node,2596899180,,,,,4244,39.2514402,74.6721843,,,
node,1738488889,,,,,4243,43.1004793,77.5715614,,,
node,1738489208,Paustovsky,Paustovsky,Паустовского,,4243,43.1811144,77.5086439,,,
node,1740226800,Kishkenetau,Kishkenetau,Кишкенетау,,4243,43.081755,77.2324057,,,
node,2593135385,,,,,4243,39.1627701,74.0122844,,,
node,2600846488,,,,,4243.0,42.1495331,71.0826203,,,
node,9738102204,Кызкочкан,,,,4243,40.0151259,72.6905679,,,
node,1738488837,,,,,4241,43.0917878,77.5506698,,,
node,2596899131,,,,,4241,39.1906666,74.9977036,,,
node,1738489056,Medoev,Medoev,Медоева,,4240,43.1276048,77.4131623,,,
node,1740257128,Shokan Valikhanov,Shokan Valikhanov,Шокана Валиханова,,4240,43.0778241,77.2547476,,,
node,2147912567,Akkum,Akkum,Аккум,Аккум,4240,42.9218155,76.74932,,,
node,5605660855,Гастелло,,,,4240,42.2765626,78.4211182,,,
node,5765365830,Слесова,,,,4240,39.6114056,70.3066313,,,
node,5767976548,,,,,4240,39.4165211,71.0291562,,,
node,9330930504,,,,,4240,39.142287,69.8895498,,,
node,11477712567,Sapozhnikov,Sapozhnikov,Сапожникова,Сапожников,4240,42.9652768,77.0606419,,,
node,5767976399,,,,,4239.7,39.4541111,71.3781462,,,
node,5604552019,Daisy,,,,4239,40.5211823,75.1033842,,,
node,5767976364,,,,,4237.5,39.4719011,71.4601562,,,
node,1867556478,,,,,4237,42.1090778,78.1872741,,,
node,1867556484,,,,,4237,42.1312987,78.2914924,,,
node,1524480940,Sairam,Sairam,Сайрамский,,4236.1,42.1378211,70.4805357,,,
node,1740226171,Kirov,Kirov,Кирова,Киров,4234,42.9435122,77.1284905,,,
node,3338501065,,,,,4234,42.4268443,74.9022669,,,
node,5767976516,,,,,4234,39.4910263,71.1319255,,,
node,12248328849,,,,,4234,42.8622408,77.2236498,,,
node,7920272576,Akzhal,Akzhal,Акжал,,4233,43.1072667,77.5274801,,,
node,11591976469,,,,,4233,42.9506392,77.0726813,,,
node,1740226575,Pogrebetsky,Pogrebetsky,Погребецкого,,4231.0,43.0341672,77.0716077,,,
node,7920272809,,,,,4231,43.0779066,77.5401231,,,
node,11693906279,"XXII s""ezda KPSS","XXII s""ezda KPSS",XXII съезда КПСС,КПССтин XXII съезди,4231,42.9311876,77.1351338,,,
node,1889320547,,,,,4230,42.4425502,74.2836496,,,
node,2593135388,,,,,4230,39.1658575,74.1319159,,,
node,5578960564,Апа-тоо,,,,4230,42.801775,76.7028,,,
node,5743747584,Асан,,,,4230,39.609371,70.2595796,,,
node,5767976525,,,,,4230,39.3591211,71.0799762,,,
node,5767976529,,,,,4230,39.33526,71.0733461,,,
node,13159547060,Кеслертас,,Кеслертас,,4230,42.5078755,80.2718945,,,
node,11215487985,ETI,ETI,ЕТИ,ЕТИ,4229,42.9755347,77.049692,,,
node,13009032789,,,,,4229,42.8788398,77.118272,,,
node,2605899278,,,,,4228.3,42.131015,71.0159585,,,
node,12241648686,Zhalpak,Zhalpak,Жалпак,Жалпак,4228,42.8997201,77.3504486,,,
node,2314876849,,,,,4227,39.0884191,69.0886822,,,
node,3644613018,Karatau,Karatau,Каратау,,4227,43.153579,77.3537431,,,
node,1859950525,,,,,4226,42.496935,75.5572628,,,
node,2626959395,,,,,4226,39.3317536,73.5274479,,,
node,1740532925,Almaty Alagar,Almaty Alagar,Алматы Алагар,Алматы Алагар,4225,42.9843858,76.9668018,,,
node,2626959385,,,,,4225,39.3267553,73.9704604,,,
node,12241649318,,,,,4225,42.9008664,77.3098199,,,
node,5767977021,,,,,4224,39.4359411,71.3401262,,,
node,12248328848,Zhasylkel'too,Zhasylkel'too,Жасылкельтоо,Жасылкельтоо,4224,42.8870009,77.155084,,,
node,11572331224,,,,,4222,43.0696585,77.2215948,,,
node,2626959390,,,,,4221,39.3293028,73.8304942,,,
node,5767351088,,,,,4221,39.6740641,71.7594337,,,
node,1865931078,Джаламыш,,,,4220,42.4973935,74.4127539,,,
node,1867556554,,,,,4220,42.2665642,78.5794445,,,
node,3345999014,Туюк-Суу,,Туюк-Суу,,4220,42.4567661,74.5482986,,,
node,5767976498,,,,,4220,39.3677511,71.1103962,,,
node,5767976523,,,,,4220,39.4641111,71.1365562,,,
node,7367971716,,,,,4220,40.7412988,75.3094447,,,
node,13011865722,Olzhatau,Olzhatau,Олжатау,,4220,42.9463421,77.218725,,,
node,12241648690,,,,,4219,42.8795835,77.2608495,,,
node,2607402655,,,,,4218.0,41.9206212,70.8068604,,,
node,3218517961,Tuyuksu,Tuyuksu,Туйыксу,,4218,43.0435619,77.0951119,,,
node,2593669600,,,,,4217.5,42.222863,71.2218931,,,
node,1865931104,Alpkarakush (prev.30 years of the VLKSM),Alpkarakush (prev.30 years of the VLKSM),,,4217,42.5030348,74.4191866,,,
node,1889324571,,,,,4216,42.4376545,74.3359763,,,
node,2626958648,,,,,4216,39.0376292,73.6431081,,,
node,3338501125,,,,,4216,42.4347704,74.8374943,,,
node,5604555807,Бешмойнок,,,,4216,41.340477,76.510332,,,
node,1642960248,Красная горка,,,,4215,42.5640871,74.5468578,,,
node,3466487140,Pik Vit,Pik Vit,пик Вит,Пик Bит,4215,42.2335122,79.5785091,,,
node,5605660854,Героев Краснодона,,,,4215,42.2890023,78.4452346,,,
node,6187399654,Пионер,,,,4215,39.9926536,72.5717985,,,
node,7370581927,,,,,4215,41.3798356,76.6844094,,,
node,12241648687,,,,,4215,42.8931237,77.3494998,,,
node,1859831140,,,,,4214,42.0915573,75.9832985,,,
node,349007607,,,,,4213.0,42.0636521,71.0401427,,,
node,5578960829,Igly Tuyuk-Su,Igly Tuyuk-Su,Иглы Туюксу,,4213,43.0454348,77.104754,,,
