osm_type,osm_id,name,name_en,name_fr,name_es,elevation_m,lat,lon,prominence,wikidata,wikipedia,prominence_calc
node,4252339778,Aneto,Aneto,Pic d'Anéto,Pico Aneto,3404,42.6310731,0.6566457,2812,Q208081,an:Tuca d'Aneto,
node,26864263,Pico de Posets,,Pic des Posets,Pico de Posets,3368.60,42.6546289,0.4352271,1131,Q282981,,1136
node,255545541,Pic Maudit,,Pic Maudit,,3354,42.639574,0.641336,,Q3110793,,171
node,5003473130,Aiguille Daviu,,Aiguille Daviu,,3350,42.6304122,0.655618,,,,49
node,948790896,Monte Perdido,,Mont Perdu,Monte Perdido,3349,42.6755485,0.0343568,971,Q215662,an:Punta de Treserols,980
node,1250020531,Pico del Medio,,Pic du Milieu,Pico del Medio,3349,42.6386072,0.6451899,,Q11941553,,104
node,5003473125,Espalda de Aneto,,Epaule de Aneto,Espalda de Aneto,3345,42.6293104,0.6596985,,Q17584188,an:Esquena de l'Aneto,76
node,5003473129,Aiguille Escudier,,Aiguille Escudier,,3340,42.6302501,0.6547218,,Q17584171,an:Agulla Baixa d'Aneto,80
node,7797043599,Aguja Schmidt-Endell,,,,3335,42.6398847,0.6409541,,,,101
node,1092109785,Cilindro de Marboré,,Cylindre du Marboré,Cilindro de Marboré,3325,42.6847945,0.0238657,251,Q507593,an:Mallo de Marmorés,264
node,5003215080,Mallo de la Lit / El Tuconet,,,,3311,42.6525327,0.4305682,,Q11953345,,81
node,2933054393,Punta Oliveras-Arenas,,Pointe Oliveras-Arenas,Punta Oliveras-Arenas,3302,42.6337629,0.6545126,,Q17584212,ca:Punta Oliveras,57
node,626639517,Vignemale,,,,3298,42.773943,-0.1473437,1025,Q1348903,es:Pico Viñamala,1029
node,623866271,Pico de Coronas,,Pic de Coronas,Pico de Coronas,3297,42.6371502,0.6493722,,Q11941468,an:Tuca de Corones,39
node,6880683513,Punta de la Lit,,,,3292,42.6518198,0.4291557,,,,57
node,4947558532,Pic Clot de la Hount,,,,3289,42.7731887,-0.1497252,,,,97
node,5003473132,Tuca Collado de Coronas,,Tuc del Collado de Coronas,Tuca Collado de Coronas,3286,42.6359083,0.6509936,,Q11953351,an:Tuca de la Collada de Corones,27
node,1241886631,Punta de la Brecha de Tempestades,,,Punta de la Brecha de Tempestades,3272,42.6272543,0.6615774,,Q17584183,an:Tuca de la Brecha de Tempestaz,66
node,1250037829,Pico Abadías,,Pic Abadías,Pico Abadías,3272,42.6431951,0.6384666,,Q17584169,,86
node,10821736171,Tuqueta Roya de Cregüeña,,,,3271,42.6424773,0.6384646,,,,73
node,5003215081,Tuqueta Roya,,,,3266,42.6531,0.4327481,,Q11953392,,15
node,5003473139,Tuca del Cuello de la Rimalla,Tuca del Cuello de la Rimalla,,Pico del Collado de la Rimaya,3261,42.6477308,0.6369312,,Q11941551,an:Tuca d'el Cuello de la Rimaya,77
node,6534813143,Pico de la Rimaya,,,Pico de la Rimaya,3261,42.6486702,0.6352925,,Q65395947,an:Tuca de la Rimaya,82
node,2192182895,Pico Marboré,,Pic du Marboré,Pico Marboré,3251,42.6928281,0.0116476,,Q2746829,fr:Pic Marboré,89
node,494177500,Pic de Cerbillona,,,,3247,42.7691997,-0.1498045,,Q3382360,fr:Pic de Cerbillona,62
node,4947558533,Pic Central,,,,3235,42.7683635,-0.1465632,,Q3382295,,46
node,7546011587,Mallo Tormosa,,,Mallo Tormosa,3235,42.6718772,0.0419024,,,,136
node,13269711827,Maladeta noreste,,,,3235,42.6475807,0.6421587,,,,33
node,7797026673,Aguja del Collado de Coronas,,,,3228,42.6343103,0.6525087,,,,44
node,8280351615,Pico Perdiguero,,Pic Perdiguère,Pico Perdiguero,3222,42.6920006,0.5188647,650,Q2746833,,653
node,566485955,Pico de Montferrat,,Pic de Montferrat,Pico de Montferrat,3219,42.7666277,-0.1382876,,,,73
node,5003470418,Antecime SE de Russell,,Antecime SE de Russell,,3206,42.6174057,0.6719174,,,,78
node,1140536164,Punta Chausenque,,,Punta Chausenque,3204,42.7734628,-0.1422823,,Q2478255,,74
node,7545936906,,,,,3202,42.6877047,0.0213055,,,,29
node,1140536098,Piton Carré,,,,3197,42.7734295,-0.1449871,,Q3389365,,41
node,5003470419,Punta de la Brecha de Russell,,,Punta de la Brecha de Russell,3197,42.6216887,0.6675911,,,,61
node,4321262141,Piton SW del Cilindro,,Piton SO du Cylindre,Piton SW del Cilindro,3194,42.6810391,0.020907,,Q11941768,,54
node,26864248,Pic Long,,,,3192,42.8008266,0.1001273,732,Q3141369,en:Pic Long,740
node,5003473141,Pico Mir,,Pic Mir,Pico Mir,3187,42.6531147,0.628693,,Q11951567,an:Tuca de Mur,49
node,5003160016,Dedo del Monte Perdido,,Doigt du Mont Perdu,Dedo del Monte Perdido,3185,42.6790915,0.0315817,,Q17584187,,56
node,7545936905,,,,,3182,42.6890466,0.0195289,,,,18
node,26863008,Bachimala,,Schrader,Bachimala,3177,42.6985978,0.3944255,564,Q2092038,fr:Pic Schrader,573
node,2294126949,Hito Occidental del Perdiguero,,Hito Occidental Perdiguère,Hito Occidental del Perdiguero,3176,42.6914274,0.5152916,,,,20
node,5003160015,Nudillo del Monte Perdido,,,Nudillo del Monte Perdido,3174,42.6799324,0.0307426,,,,107
node,2287097413,Pic de Campbieil,,,,3173,42.792033,0.1197083,271,Q3382361,,280
node,2634949996,Hito Oriental del Perdiguero,,Hito Oriental du Perdiguère,Hito Oriental del Perdiguero,3171,42.6909214,0.5220792,,Q11922139,ca:Fita E de Perdiguero,21
node,1250020179,Pico de los Gemelos,,Pic des Jumeaux,Pico de los Gemelos,3167,42.6614912,0.4351469,,,,100
node,1250023594,Pointe Delmás,,Pointe Delmás,,3163,42.6539008,0.6284564,,Q11943910,,46
node,5003160018,Picos de la Cascada Oriental,,Pic oriental de la Cascade,Picos de la Cascada Oriental,3161,42.6899584,0.0078224,,Q3382406,,57
node,2287097434,Pic Badet,,,,3160,42.7977717,0.1042392,,Q572681,,113
node,5003088277,Pic de Lentilla,,Pic de Lentilla,,3157,42.7888571,0.1171267,,Q11941435,,24
node,5003057686,Épaule de Chausenque,,Épaule de Chausenque,,3154,42.7732923,-0.1400177,,Q11920626,,54
node,1250032653,Pico de le Bondidier,,Pic Le Bondidier,Pico de le Bondidier,3153,42.6480865,0.6274156,,Q17584204,,68
node,5003473140,Antecima N. del Pico Le Bondidier,,Antecime N du Pic Le Bondidier,Antecima N. del Pico Le Bondidier,3152,42.6487281,0.6278389,,,,41
node,4947558534,Grand Pic de Tapou,,,,3151,42.7627842,-0.1358368,,Q3113703,,115
node,13269758410,Segundo Resalte de Salenques,,,,3148,42.6253584,0.6674406,,,,83
node,494395635,Pico Balaitús,,Pic du Balaïtous,Pico Balaitús,3146,42.8389387,-0.290257,851,Q2298456,es:Pico Balaitús,851
node,6535636066,Aguja Sur Rusell,,,,3146,42.6160365,0.6724256,,,,77
node,2192182868,Tallón,,Pic du Taillon,Tallón,3144,42.6936421,-0.0512874,342,Q3141527,fr:Pic du Taillon,363
node,26864258,Pica d'Estats,,Pique d'Estats,Pica d'Estats,3143.45,42.666952,1.3978986,1264,Q1537733,es:Pica d'Estats,1276
node,5003088278,Aiguille Badet,,Aiguille Badet,,3135,42.7988645,0.102117,,Q17587486,,67
node,1250028985,Punta del Sable,,Pointe du Sabre,Punta del Sable,3134,42.6944365,0.3964367,,Q11831820,,67
node,1060153613,Punta de Literola,,Pointe de Literole,Punta de Literola,3133,42.6988654,0.5228297,,Q3393625,fr:Pointe de Litérole,85
node,1092110351,Pico de la Munia,,Pic de la Munia,Pico de la Munia,3133,42.7148957,0.1319236,673,,,584
node,5003057682,Pointe supérieure du Tapou,,Pointe supérieure du Tapou,,3132,42.7640917,-0.1365252,,Q17584223,,79
node,10821759993,Agulla d'Ixalenques,,,,3132,42.6253317,0.6685005,,Q11942730,ca:Primer Ressalt de Salenques,82
node,4947558535,Pic du Milieu,,,,3130,42.7615778,-0.1364073,,Q2399579,,47
node,445583491,Pic Verdaguer,,,,3129.4,42.6680493,1.396855,,Q7190457,es:Pico Verdaguer,25
node,988137856,Guargas Blancas,,Pic des Gourgs Blancs,Guargas Blancas,3129,42.700022,0.4777227,221,Q11701147,an:Tuca de Gorgs Bllancs,237
node,1250021543,Pic des Vétérans,,Pic des Vétérans,,3129,42.6651595,0.4374824,,,,113
node,5003057681,Punta Inferior del Tapou,,Pointe inférieure du Tapou,Punta Inferior del Tapou,3124,42.7635186,-0.1358584,,Q17584201,,48
node,1060153574,Tuca Roya de Lliterola,,,,3122,42.6976332,0.5208907,,Q3382386,,32
node,1250023802,Tucón Royo o Pavots,,,Tucón Royo o Pavots,3122,42.6408124,0.4239258,,Q11813889,ca:Pavots,38
node,5003057684,Aiguille supérieure du Clot de la Hount,,,,3119,42.7737521,-0.1527435,,Q17584222,,100
node,3208807851,Muela de Alba,,,Muela de Alba,3118,42.6536537,0.625245,,Q17584209,an:Quixal d'Alba,43
node,1868861762,Pointe Gabarró,,Pointe Gabarró,,3114.6,42.6654679,1.3998781,,Q7260524,es:Punta de Gabarró,34
node,5003256554,Tour Armengaud,,Tour Armengaud,,3114,42.7000247,0.4764121,,Q11952228,,56
node,5003160019,Pic Brulle,,Pic Brulle,,3111,42.6888393,0.0051176,,Q3382290,,44
node,10821777526,Torre de Salenques,,,Torre de Salenques,3111,42.6256095,0.6705106,,,,106
node,5003172156,Punta Ledormeur,,Pointe Ledormeur,Punta Ledormeur,3107,42.6999105,0.3952905,,Q17584205,,36
node,5003256549,Cap Dera Baquo Oriental,,,Cap Dera Baquo Oriental,3104,42.6931007,0.4927623,,,,197
node,5003256555,Punta Lourde Rocheblave,,Pointe Lourde Rocheblave,Punta Lourde Rocheblave,3104,42.7000919,0.4740858,,Q11943914,an:Tuca de Puixebres,50
node,6790492466,Crabioles Occidental,,Crabioules Occidental,Crabioles Occidental,3102,42.7026745,0.5266251,,Q11915991,an:Tuca de l'Estraperlo,135
node,1250025769,Picos de la Cascada Occidental,,Pic occidental de la Cascade,Picos de la Cascada Occidental,3098,42.6866993,0.0024152,,Q3382405,,69
node,1089570467,Cap Dera Baquo Occidental,,,Cap Dera Baquo Occidental,3097,42.6952671,0.4915277,,Q17584186,ca:Cap Dera Baquo Occidental,66
node,1250019942,Tuca de Lliterola,,,Tuca de Lliterola,3097,42.695402,0.5211923,,,,24
node,6790492454,Pico Sellam de la Baca Occidental,,,Pico Sellam de la Baca Occidental,3097,42.6945112,0.4920976,,,,67
node,1250015908,Punta de l'Ibón Gran Norte,,,,3096,42.7033866,0.3950628,,,,64
node,5003093298,Pequeña Munia,,Petite Munia,Pequeña Munia,3096,42.7160792,0.1334718,,,,22
node,5003160017,Tuqueta de Marboré,,,Tuqueta de Marboré,3093,42.6854521,0.0188935,,,,18
node,8244330333,,,,,3092,42.652941,0.6268671,,,,11
node,8244330334,,,,,3092,42.653019,0.626584,,,,17
node,1825431806,Pic de Néouvielle,,Pic de Néouvielle,,3091,42.8353661,0.1151204,487,Q3088745,fr:Pic de Néouvielle,515
node,1250019173,Sierra Morena,,,Sierra Morena,3090,42.7207426,0.1353078,,Q3382389,,85
node,6533442804,Agulla de la Brecha de Llosás,,,,3088,42.6280484,0.6499838,,,,49
node,13269651490,Colmillo de Alba Oriental,,,,3087,42.6540091,0.6234621,,,,54
node,494174406,Pic de Troumouse,,,,3085,42.7224452,0.1367431,,Q2420237,fr:Pic de Troumouse,54
node,1250038304,Diente de Llardana,,Dent de Llardana,Diente de Llardana,3085,42.6462169,0.4351016,,Q17584184,,152
node,6872204456,,,,,3085,42.6920822,0.4977828,,,,45
node,12264527095,Aguja SO del Pico Abadías,,,,3085,42.6417749,0.6368577,,,,71
node,652132494,Infierno Central,,Pic Central d'Enfer,Infierno Central,3080,42.7814949,-0.2605587,552,,,558
node,5003215082,Pico de la Paúl,,,,3079,42.6605688,0.4462766,,,,75
node,5003160012,Espalda de Esparets,,Epaule d'Esparets,Espalda de Esparets,3078,42.6772465,0.0430264,,Q11920627,,33
node,445583481,Pic du Montcalm,,,,3077,42.671885,1.4059884,,Q1479975,,94
node,2917938909,Infierno Oriental,,Pic Oriental d'Enfer,Infierno Oriental,3076,42.781345,-0.2590393,,,,49
node,5003215079,Tuca Forau de la Neu,,,Tuca Forau de la Neu,3076,42.644025,0.4280192,,Q11953343,,27
node,652132493,Pic Occidental d'Enfer,,Pic Occidental d'Enfer,,3075,42.7831253,-0.2632365,,,,53
node,2287097444,Pic Maou,,,,3074,42.7941054,0.1058456,,Q3382315,,41
node,1250015177,Espalda de Marboré,,Épaule du Marboré,Espalda de Marboré,3073,42.6853412,0.0002861,,,,16
node,1250039537,Pico Inferior de la Paúl,,,Pico Inferior de la Paúl,3073,42.6586091,0.4434197,,Q11941429,ca:Pic Inferior de la Paül,43
node,5003473135,Aguja Haurillón,,Aiguille Haurillon,Aguja Haurillón,3073,42.6351901,0.6370246,,Q17584174,ca:Agulla Haurillón,88
node,652132539,Pico de la Frondella,,,Pico de la Frondella,3071,42.8330662,-0.2903135,,,,135
node,734648025,Astazu Gran,,Grand Astazou,Astazu Gran,3071,42.7024839,0.0236816,,Q3113515,fr:Grand Astazou,160
node,5003256543,Aiguille supérieure de Lézat,,Aiguille supérieure de Lézat,,3069,42.7062007,0.518787,,,,189
node,1250033046,Pico de Bardamina,,Pic de Bardamina,Pico de Bardamina,3068,42.6624312,0.4509654,,Q17584182,,59
node,5003256553,Tuca de O,,,,3065,42.6996336,0.4811743,,Q11941436,ca:Pic Jean Arlaud,102
node,590706409,Garmo Negro,,,,3064,42.7716445,-0.2641782,246,,,254
node,5003033726,Frondella N,,,,3062,42.8334727,-0.2901468,,Q17584192,,60
node,5003473128,Aguja Franqueville,,,Aguja Franqueville,3061,42.6251144,0.6468218,,Q11904360,an:Agulla de Franqueville,73
node,1250040083,Tuca de Vallibierna,,,Tuca de Vallibierna,3059,42.5940416,0.6530895,329,Q3100806,es:Pico de Vallibierna,339
node,5003263133,Sotllo N,,,,3058.2,42.6697873,1.3875262,,,,191
node,4999107333,Pic Maubic,,,,3058,42.8027444,0.1029226,,Q3382316,,42
node,5003256542,Aiguille centrale NO Lézat,,Aiguille centrale NO Lézat,,3058,42.7058207,0.5192036,,,,154
node,1250025913,Pico Eriste Gran,,,Pico Eriste Gran,3056,42.6250668,0.4092338,230,,,231
node,652132478,Frondella,,,,3055,42.8321527,-0.2928759,,,,65
node,10090048941,Aguja de Alba,,,,3054,42.6556001,0.6186632,,,,109
node,11527504825,,,,,3054,42.5936681,0.654405,,,,34
node,3429961790,Tuca de Culebres,,,,3053,42.5939764,0.6514085,,Q11953344,es:Tuca de Culebras,31
node,5003473127,Aguja Tchihatcheff,,,Aguja Tchihatcheff,3052,42.624652,0.6448567,,,,91
node,6887996037,Punta del Ibón,,,Punta del Ibón,3052,42.7063983,0.3935444,,,,42
node,13547464422,Torre Cordier / Pico del Olvido,,,,3052,42.6532741,0.6338538,,,,53
node,1250030355,Pico Royo,,,,3051,42.6908419,-0.0544752,,,,29
node,1250034375,Pequeño Bachimala,,,,3051,42.7097798,0.3936125,,,,85
node,5003057685,Aguja SW de Cerbillona,,,Aguja SW de Cerbillona,3051,42.7676018,-0.1524952,,Q11904364,,25
node,5003470416,Pointe orientale de Russell,,Pointe orientale de Russell,,3051,42.6165797,0.6770269,,Q11943922,ca:Punta Russell Oriental,15
node,5003256546,Pico Portillón de Oô,,,Pico Portillón de Oô,3050,42.6927035,0.5073666,,,,126
node,3253918830,Torre Costerillou,,Tour de Costérillou,Torre Costerillou,3049,42.8376788,-0.2859567,,Q11952238,,180
node,1250024164,Bachimala Chicot N,,,,3048,42.7075447,0.3933877,,,,37
node,10089409665,Punta Mamy,,,,3048,42.7030128,0.5252877,,Q11943913,,108
node,2294147390,Pico Rabadá,,,Pico Rabadá,3045,42.700052,0.5367927,,Q11941440,an:Tuca de Rabadá,133
node,5003160013,Mallo de Tormosa,,,,3045,42.6732435,0.046563,,Q11908830,,66
node,5003256548,Pico Audoubert,,,,3045,42.6962004,0.4892999,,Q17584181,,26
node,5003473123,Forca d'Estasen,,,,3045,42.62547,0.6722557,,,,44
node,6533447435,,,,,3045,42.6247377,0.6456144,,,,71
node,652132454,Pico Argualas,,,,3044,42.7664853,-0.2668997,,,,130
node,5003057683,Aguja Inferior Clot de la Hount,,,,3043,42.7743026,-0.1532268,,,,89
node,5003256556,Pico Camboué,,,,3043,42.7023469,0.4715431,,,,34
node,2294147403,Tusse de Remuñe,,,,3041,42.6997746,0.5356424,,Q17584225,,42
node,3090463423,Cap de la Coma de Riufred,,,,3041,42.6687455,1.4015231,,,,17
node,5003473134,Aguja Cregüeña,,,Aguja Cregüeña,3041,42.6346691,0.6357372,,Q11904355,,56
node,6886018973,Pico de Bagüeñola,,,Pico de Bagüeñola,3041,42.6231408,0.4090307,,,,77
node,2287097482,Pic des Trois Conseillers,,,,3039,42.831159,0.1129302,,Q3382420,,179
node,6875982172,Tuca de Navarro,,,,3039,42.7002331,0.5396271,,Q18005120,an:Tuca de Navarro,114
node,6887996039,,,,,3038,42.7087362,0.3932349,,,,54
node,5003256541,Aiguille centrale SE de Lézat,,Aiguille centrale SE de Lézat,,3037,42.7054724,0.5198332,,,,153
node,1250020602,Pico Algas,,,,3036,42.7683164,-0.2706457,,,,61
node,5003473126,Aguja Argarot,,,Aguja Argarot,3036,42.6242901,0.6448056,,Q11904351,an:Agulla d'Argarot,67
node,2287097490,Turon de Néouvielle,,,,3035,42.8277711,0.1077501,,Q3542372,,142
node,5003088279,Premier Conseiller,,,,3035,42.8299126,0.1099062,,,,
node,7183756565,Aguja Literola,,,,3035,42.7004867,0.526188,,Q17584206,ca:Agulla de Lliterola,18
node,1400940495,Punta Culfreda Sur,,Pic de Batoua,Punta Culfreda Sur,3034,42.7087042,0.336307,577,Q31651797,,604
node,10819411215,Aguja SW de Russell,,,Aguja SW de Russell,3034,42.6169465,0.6676464,,Q17584176,ca:Agulla SW de Russell,68
node,5003172157,Punta Batouta,,,Punta Batouta,3033,42.7105028,0.3395033,,,,40
node,566485952,Petit Vignemale,,,,3032,42.774699,-0.135048,,Q2053712,,124
node,626949740,Aguja Argarot Sur,,,Aguja Argarot Sur,3032,42.623724,0.6447508,,,,62
node,652132403,Algas N,,,,3032,42.7695806,-0.2709506,,,,43
node,1250021974,Pico Eriste Norte o Beraldi,,,Pico Eriste Norte o Beraldi,3031,42.6266401,0.4130425,,,,84
node,2356214063,Gabieto Norte,,,,3031,42.6945736,-0.0620987,,,,122
node,4930071381,Bugarret,,,,3031,42.8010064,0.0915211,,,,66
node,5003172158,Pico Culfreda Central,,,Pico Culfreda Central,3031,42.7099313,0.3380227,,,,26
node,7554312190,Gabieto Sur,,,,3031,42.6925653,-0.0656869,,,,
node,26862732,Pic de Comaloforno,,,,3029.2,42.5913788,0.827831,748,Q2984642,ca:Pic de Comaloforno,748
node,5003093297,Punta Aires,,,Punta Aires,3028,42.7272805,0.1352262,,,,97
node,4321471712,Punta Escaleras,,,Punta Escaleras,3027,42.6698029,0.029876,,Q11943909,,36
node,5003160014,Punta de Tormosa,,,,3026,42.6695604,0.0520873,,Q11908832,,60
node,45197008,Punta de l'Abella,,,,3025,42.7132443,0.3928154,,Q11903838,,56
node,652132400,Algas SE,,,,3025,42.7675416,-0.2698734,,,,54
node,5003256545,Aguja Jean Garnier,,,,3025,42.701251,0.5330515,,Q11904363,,75
node,7799247627,Pico de la Pez,,,Pico de la Pez,3024,42.7106706,0.3846791,,,,79
node,575756027,Besiberri Sud,,,,3023.4,42.5938062,0.8259905,,Q8531381,ca:Besiberri Sud,69
node,734648028,Pic de Lustou,,,,3023,42.7347815,0.3600008,265,,,289
node,5003256540,Aiguille inférieure de Lézat,,Aiguille inférieure de Lézat,,3023,42.7050096,0.5203008,,,,139
node,652132356,Aguja Cadier,,,,3022,42.83432,-0.2898718,,Q11904357,,53
node,652132405,Aguja D'Ussel,,Aiguille d'Ussel,Aguja D'Ussel,3022,42.8376244,-0.2841643,,,,187
node,1250022420,Punta de las Olas,,,Punta de las Olas,3022,42.6621893,0.0534743,,Q11943985,,76
node,1809407554,Pic Heid,,,,3022,42.7286951,0.135119,,Q3382307,,91
node,5003473133,Aguja Juncadella,,,Aguja Juncadella,3022,42.6334377,0.6322106,,Q11904365,an:Agulla de Juncadella,67
node,4930071380,Pale Crabounouse,,,,3021,42.8031583,0.0880206,,Q3382363,,33
node,5003033725,Aguja de Arnales,,Aiguille d'Arnales,Aguja de Arnales,3020,42.7809139,-0.2575239,,,,44
node,1089570438,Pico de Clarabide,,,Pico de Clarabide,3019,42.6947878,0.4674603,,Q11941460,ca:Pic de Clarabide,104
node,7554312186,Cabieto dero Baziero,,,,3018,42.6938702,-0.0630793,,,,27
node,7799247626,Pico Puerto de la Pez,,,Pico Puerto de la Pez,3018,42.7111269,0.384987,,,,32
node,1377651606,Pico Oriental de Clarabide,,Pic Oriental de Clarabide,Pico Oriental de Clarabide,3017,42.6965039,0.4686528,,Q17584213,,35
node,4930071382,Dent D'Estibère Male,,,,3017,42.800697,0.0944013,,,,47
node,5003088276,Pale Crabounouse N.,,,,3016,42.8044299,0.089618,,,,17
node,1250020141,Astazu Chico,,Petit Astazou,Astazu Chico,3015,42.7018762,0.014493,,Q3377091,,62
node,3707866584,Punta Alta de Comalesbienes,,,,3014,42.5857601,0.8803745,539,Q7260504,ca:Punta Alta de Comalesbienes,542
node,4999107332,Aguja Tourrat,,,Aguja Tourrat,3014,42.8048196,0.1036836,,,,66
node,1250039684,Pico de Gías,,Pic de Gias,Pico de Gías,3013,42.693425,0.4701595,,Q17584199,,61
node,652132406,Aguja de Pondiellos,,,Aguja de Pondiellos,3011,42.7718304,-0.2621429,,Q11904362,,46
node,2927071009,Pic Ramougn,,,,3011,42.8348178,0.1201617,,Q3088783,,119
node,5003256539,Pointe LaQ,,Pointe LaQ,,3010,42.7039186,0.5234295,,Q11943912,,80
node,5003314321,Agulla Nord de Malvesina,,,,3009.9,42.5929876,0.8265495,,,,49
node,5003256552,Pico Belloc,,,,3008,42.7138699,0.4793732,,,,168
node,6880618013,Pico Occidental de Clarabide,,,,3008,42.6944619,0.4661541,,,,24
node,5003215077,Tuca de la Forqueta Sur,,,,3007,42.6307304,0.4266166,,Q17584191,,155
node,5003256550,Pointe Belloc Sud,,,,3007,42.7126732,0.4800128,,Q11908939,,162
node,13159582396,Pointe Reboul-Vidal,,,,3007,42.8275569,0.1076067,,Q11943916,,46
node,2287097469,Pic d'Estaragne,,,,3006,42.7971603,0.1302987,,Q3382347,,92
node,5003256551,Pointe Belloc Central,,,,3006,42.7131173,0.479742,,Q11908935,,155
node,575896583,Pico de la Gran Facha,,Grande Fâche,Pico de la Gran Facha,3005,42.8081942,-0.237874,283,Q3114948,es:Pico Gran Facha,284
node,45193909,Pic Rodó de Canalbona,,,,3004.3,42.6625832,1.4016988,,Q7357513,ca:Rodó de Canalbona,59
node,652132456,Algas SO,,,Algas SO,3003,42.7675455,-0.2712949,,,,54
node,5003256557,Pico Saint-Saud,,,,3003,42.7022129,0.4678845,,,,51
node,652132544,Pico Arnales,,,,3001,42.7801254,-0.2560053,,,,59
node,5003256547,Pequeño Pico Portillón,,,,3000,42.6928076,0.5026976,,,,27
node,6790517464,Pico de Gías Inferior,,,,3000,42.6933554,0.4711878,,,,91
node,9292166189,,,,,2998,42.6806211,0.0259959,,,,18
node,3706616071,Punta de Passet,,,,2997.6,42.589379,0.8271458,,Q17482929,ca:Punta de Passet,48
node,1250022624,Tuca de Piedras Blancas,,,Tuca de Piedras Blancas,2996,42.6306258,0.6215952,,,,90
node,5001911313,,,,,2995.9,42.6006235,0.8256757,,,,
node,575756029,Besiberri del Mig,,,,2995.2,42.5998934,0.8249398,,Q4896263,ca:Besiberri del Mig,108
node,7552147038,,,,,2995,42.7016154,0.0272993,,,,99
node,623866308,Pico de Cregüeña,,,,2994,42.6342639,0.6141615,,,,108
node,3696696886,Pic de Comalesbienes,,,,2993.3,42.5839748,0.8786733,,Q11941463,ca:Pic de Comalesbienes,34
node,7547061189,,,,,2993,42.6639676,0.0531094,,,,23
node,7552147037,,,,,2993,42.7018213,0.0268604,,,,92
node,652132477,Frondella SW,,,,2992,42.8285479,-0.2975106,,Q17584193,,89
node,9814514752,pic Central,,,,2991,42.8376101,-0.2827205,,,,186
node,5001911315,,,,,2989.5,42.6010124,0.8257608,,,,60
node,7552147045,,,,,2989,42.697002,0.0153215,,,,57
node,733993042,Pic d'Ardiden,,,,2988,42.8340053,-0.0676333,423,Q3382344,,426
node,7552147044,,,,,2988,42.6988119,0.0153348,,,,66
node,1060153532,Mall Barrat,,,,2984,42.6988347,0.5625372,,,,146
node,575756025,Pic d'Abellers,,,,2983.4,42.5948531,0.8204737,,Q11941445,ca:Pic d'Abellers,104
node,7545900004,Pic Occidental,,,,2983,42.6865169,0.0086284,,,,8
node,577086031,Pic de Peguera,,,,2982.7,42.5405381,1.0119532,555,Q7190465,ca:Pic de Peguera,558
node,7545936909,,,,,2981,42.6808376,0.0266822,,,,3
node,7552147040,,,,,2981,42.7016177,0.0179874,,,,27
node,247102455,Soum des Salettes,,,,2976,42.7687509,0.1110067,380,,,377
node,733939395,Pic de la Sède,,,,2976,42.7861303,-0.1203085,242,,,246
node,2192182875,Pointe Bazillac,,,,2976,42.691673,-0.0391619,,Q3382287,,110
node,6764370092,,,,,2976,42.6625091,0.45579,,,,14
node,4909067317,,,,,2975.5,42.5763846,0.8919715,,,,176
node,494395676,Pic Palas,,,,2974,42.8494134,-0.3132716,401,Q3382327,fr:Pic Palas,410
node,4909067319,,,,,2973.2,42.5754964,0.8916086,,,,41
node,7546011586,,,,,2973,42.6784913,0.0440068,,,,18
node,7552147042,,,,,2973,42.7008349,0.0143682,,,,9
node,577182414,Cap deth Hòro de Moilères,,,,2972.8,42.6323786,0.7008425,,Q17482236,ca:Cap deth Hòro de Molières,172
node,26864384,Punta Suelza,,,Punta Suelza,2972,42.6520423,0.289818,658,Q23992064,,659
node,3208824460,,,,,2972,42.6457566,0.6237726,,,,33
node,4275544771,Pic de Guerreys ou de Bacou,,Pic de Guerreys ou de Bacou,,2972,42.723972,0.3604154,,,,144
node,6533398774,,,,,2971,42.6311338,0.6863108,,,,114
node,6533447451,,,,,2971,42.6446208,0.6307772,,,,6
node,6533460730,Tucón de la Crencha de Cregüeña,,,,2971,42.63361,0.6332282,,,,-10
node,4909067294,,,,,2970.5,42.5807219,0.8966334,,,,86
node,4909236474,,,,,2968.6,42.5821166,0.897034,,,,86
node,626639809,Soum d’Aspé,,,,2968,42.7772259,-0.0816339,316,,,328
node,6534813141,,,,,2968,42.6451283,0.6299988,,,,4
node,6886018969,,,,,2968,42.6327496,0.4228357,,,,51
node,5001911317,,,,,2966.9,42.6020009,0.8260855,,,,53
node,3706616070,Punta de Lequeutre,,,,2966.2,42.5873479,0.8276805,,Q11943933,ca:Punta de Lequeutre,34
node,1377651691,,,,,2966,42.6941615,0.4639716,,,,24
node,9316079234,,,,,2966,42.6640179,0.4502697,,,,42
node,5001911319,,,,,2965.6,42.6022549,0.8261305,,,,59
node,45188761,Pic de Canalbona,,,,2965.3,42.6565797,1.4058883,,Q7190459,en:Pic de Canalbona,57
node,494395411,Pico de Cambalés,,Pic de Cambalès,Pico de Cambalés,2965,42.8236117,-0.2435536,297,Q18415042,,303
node,733993047,Malh Arrouy,,,,2965,42.7841987,-0.0725046,,,,177
node,1250022154,Pic de la Nissoude,,Pic de la Nissoude,,2965,42.7153171,0.3492877,,,,176
node,988137855,Pic de Hourgade,,,,2964,42.7338413,0.448784,234,Q3382372,,309
node,6899517639,Punteta Peguera,,,,2964,42.7220614,0.3594031,,,,59
node,7052343071,,,,,2963,42.6528441,0.2883652,,,,14
node,2917938908,Garmo Blanco,,,,2962,42.7851495,-0.2649666,,,,50
node,2851902675,Guins de l'Ase,,,,2960,42.6778324,1.3870108,,,,180
node,10076929712,Pic de Tour,,,,2960,42.7330145,0.3587626,,,,31
node,5001915322,,,,,2959.1,42.603267,0.8260582,,,,63
node,6540399648,,,,,2959,42.6104336,0.6720115,,,,41
node,1250031390,Tuca de Torets,,,,2958,42.6288952,0.4279409,,,,71
node,1809407553,Petit Pic Blanc,,,,2957,42.7322117,0.1342758,,,,56
node,4909236472,,,,,2956.7,42.5823972,0.8971092,,,,109
node,3686735592,Pic dels Estanys,,,,2956,42.6664429,1.3707485,,Q17481960,ca:Pic dels Estanys,122
node,1250035704,Pico de l'Agulla,,,,2955,42.6311416,0.6170185,,,,64
node,7554183107,,,,,2955,42.684927,-0.0050754,,,,31
node,11951607451,Tuca Feixán o Pico de la Tallada,,,Tuca Feixán o Pico de la Tallada,2955,42.616767,0.7237043,207,,,249
node,1250026078,Tuca del Quillón,,,Tuca del Quillón,2953,42.6336709,0.6067243,,,,76
node,13025995052,Pic de la Conca Gelada,,,,2952.3,42.6588329,1.4033086,,,,34
node,626949782,Pico Estatás,,,Pico Estatás,2952,42.6367852,0.5985071,,Q24001315,,97
node,652132543,Pico de Piedrafita,,,,2952,42.7933574,-0.2584578,,,,182
node,5001915321,,,,,2952.0,42.6028062,0.8259068,,,,64
node,6534890520,,,,,2951,42.6340531,0.6082082,,,,52
node,4909067311,,,,,2950.5,42.5788083,0.8960408,,,,38
node,4909236424,,,,,2950.4,42.5393842,1.0126986,,,,73
node,577085803,Pic de Subenuix,,,,2950.2,42.5549864,0.9794615,232,Q7190469,ca:Pic de Subenuix,258
node,1250015674,Pico del Sen,,,,2949,42.6250412,0.4055039,,,,50
node,4909067313,,,,,2947.8,42.578221,0.8956766,,,,28
node,626639329,Pequeña Facha,,,Pequeña Facha,2947,42.8178906,-0.2356776,,,,143
node,5489349289,Pic de Cestrede,,,,2947,42.8036192,-0.0706305,241,Q18214319,fr:Pic de Cestrède,258
node,4909236477,,,,,2946.3,42.58345,0.8937339,,,,49
node,3255721761,Pic de Labas,,,,2946,42.7824809,-0.108251,225,,,230
node,4909067315,,,,,2946.0,42.5778492,0.8953581,,,,23
node,6571856977,,,,,2946,42.5924385,0.6626352,,,,37
node,652132574,Punta Zarre,,,Punta Zarre,2944,42.7973269,-0.248394,,,,172
node,2287097420,Grand pic des Alharisses,,,,2944,42.805141,0.1306903,,,,160
node,2287097449,Pic Méchant,,,,2944,42.8016649,0.1536991,242,Q49753151,,258
node,5705570258,Pic Marcel Spont,,,,2944,42.7194731,0.4694143,,,,122
node,901125108,Pic de Comapedrosa,,,,2943,42.591799,1.4436614,434,Q62467,ca:Comapedrosa,436
node,1250022549,Tuca de Bagüenya,,,,2943,42.6179994,0.4114305,,,,102
node,6278684246,Diente Royo,,,,2943,42.6361506,0.4280744,,Q11916902,,49
node,3707866579,Pic de Sarradé,,,,2942.2,42.5783841,0.9116754,,Q11941501,ca:Pic de Sarradé,143
node,626949743,Tuqueta de Los Munyidós,,,Tuqueta de Los Munyidós,2942,42.5984573,0.6578063,,,,56
node,6571856975,Roca Blanca,,,,2942,42.592426,0.659481,,,,11
node,652132545,Pico de Llena Cantal,,,,2941,42.7997947,-0.2612902,,,,166
node,6875922578,Mail Planet,,Mail Planet,,2941,42.6972958,0.5673224,,,,129
node,5948002706,Pointe du Montcalm,,,,2940,42.6796058,1.4084858,,,,118
node,5375778209,Pic d'Aret,,,,2939,42.7542863,0.2750079,540,Q31653203,,543
node,4909236475,,,,,2938.7,42.5832337,0.8955081,,,,28
node,1250017399,Pico Millares,,,Pico Millares,2938,42.631583,0.4182091,,,,83
node,1091885250,Pico de la Pez,,Pic de la Pez,Pico de la Pez,2934,42.7085562,0.3795572,,Q11941537,,51
node,1867528828,Pic de Parraouis,,,,2934,42.7432474,0.36734,,,,199
node,6875991479,,,,,2934,42.6924047,0.5400064,,,,47
node,1304133675,Pic de Baborte,,,,2933,42.6574619,1.3670785,217,Q17481289,ca:Pic de Baborte,225
node,4803970937,Aiguille des Glaciers,,,,2933,42.7761812,-0.139693,,,,79
node,1250030735,Tuca de la Llantia,,,,2932,42.623881,0.4344263,,,,110
node,6533398769,,,,,2932,42.6286308,0.6794544,,,,103
node,652132404,Aiguille Lamathe,,,,2931,42.8411006,-0.2915026,,,,91
node,652132476,Demeure Soulé,,,,2931,42.8344693,-0.2760935,,,,205
node,6636720695,Pic de Bastampe,,,,2931,42.8202706,-0.051535,,,,149
node,494178001,Pic Alphonse Meillon,,,,2930,42.7984472,-0.1608291,336,,,339
node,6533398770,,,,,2927,42.6280996,0.6813939,,,,30
node,5705550273,Pic d'Arrouge,,,,2925,42.7317486,0.4513194,,,,117
node,6790492436,,,,,2925,42.6985659,0.4839578,,,,24
node,9951076763,Pic Chabarrou Nord,,,,2925,42.8021647,-0.1617694,,,,130
node,626639797,Pic sud d'Aspé,,,,2924,42.7726549,-0.0855902,,,,52
node,5705570257,Pic des Isclots,,,,2924,42.7209611,0.4654915,,,,98
node,6880683535,,,,,2922,42.6345027,0.428005,,,,63
node,7545900003,,,,,2922,42.6841619,0.0123036,,,,4
node,5814609951,,,,,2921.4,42.5851054,0.8918647,,,,29
node,26864229,Pic Carlit,,,,2921,42.569841,1.932093,1006,Q2476121,ca:Carlit,1005
node,1250016181,Pico Blanco,,,,2919,42.6851319,-0.0543024,,,,89
node,494395415,Pico Aragón,,Pène d'Aragon,Pico Aragón,2918,42.8187413,-0.2404251,,,,91
node,5814610733,,,,,2917.3,42.5741302,0.8897359,,,,10
node,579893382,Puigpedrós,,,,2915,42.487576,1.7619109,653,Q968445,ca:Puigpedrós,655
node,2188365878,Pic de l'Estanyó,,,,2915,42.6086785,1.5926138,519,Q4563375,ca:Pic de l'Estanyó,523
node,2189483850,Pic Oriental de Canalbona,,,,2914.6,42.6557029,1.413237,,,,122
node,6534890524,,,,,2914,42.6359632,0.6000758,,,,22
node,26862740,Cotiella,,,,2912,42.5119837,0.3197771,1196,Q5790190,ca:Cotiella,1196
node,366540873,Pic de Serrère,,Pic de Serrère,,2912,42.6255422,1.6025216,222,Q11941547,ca:Pic de la Serrera,248
node,652132357,Diente de los Batanes S,,,Diente de los Batanes S,2912,42.7689157,-0.199129,371,,,375
node,652132552,Pico de Pondiellos,,,,2911,42.7748179,-0.2569985,,,,84
node,652132566,Pico Soulano,,,,2911,42.8332685,-0.2755381,,,,189
node,11646994234,Puigmal d'Err,,,,2910,42.3832668,2.1167923,1331,Q17477,ca:Puigmal,
node,13203302275,Pico Arna,,,,2910,42.7653938,-0.2751717,,,,68
node,8865958812,Puigmal,,,,2909.94,42.383266,2.1167871,,Q17477,en:Puigmal,1333
node,577086102,Pic de la Mainera,,,,2909.3,42.5244805,1.0271659,241,Q11941533,ca:Pic de la Mainera,245
node,1241951836,Pico de las Marmoleras,,,,2908,42.7914119,-0.2622814,,,,69
node,6869066216,,,,,2908,42.6920286,0.4698268,,,,54
node,652132562,Pico Gaurier,,,,2906,42.7972198,-0.2533938,,,,129
node,1250016582,Tuca Alta,,,Tuca Alta,2906,42.6431715,0.4402428,,,,71
node,4909236423,Tuc de Saburó,,,,2905.7,42.5350657,1.0189269,,Q17301016,ca:Tuc de Saburó,116
node,2005388000,Monteixo,,,,2905.1,42.6017386,1.3616475,297,Q8531408,ca:Monteixo,306
node,6869066222,,,,,2905,42.6653265,0.4498503,,,,41
node,11983786756,Pic occidental de Medacorba,,,,2905,42.603066,1.438743,,,,161
node,2008250724,Tossa Plana de Lles,,,,2904.9,42.468233,1.6565494,390,Q11941543,ca:Pic de la Portelleta,390
node,1806450395,Pic de Gerbats,,,,2904,42.7401982,0.1323702,,,,137
node,2921596354,Pico de Las Mormoleras,,,,2904,42.7822086,-0.2617072,,,,-124
node,4359162162,,,,,2904.0,42.5253475,1.0251243,,,,33
node,5155428040,Tusse de Maupás,,,,2904,42.7053745,0.5483186,,,,48
node,3004378998,Pic dels Vidals,,,,2903.8,42.5346107,0.9979741,,Q11941567,ca:Pic dels Vidals,193
node,576676018,Pics de Bassiero - Punta Brulle,,,,2903.5,42.6066704,0.9953644,361,Q17481321,ca:Pics de Bassiero,362
node,1102580806,Pic du Port ou Pic de Font Blanca,,Pic du Port ou Pic de Font Blanca,,2903,42.6496897,1.5343398,389,Q3382368,ca:Pic de la Font Blanca,402
node,9814514751,pointe de la Défaite,,,,2903,42.8356822,-0.2780578,,,,189
node,577085993,Pic Morto,,,,2902.0,42.5539235,0.9873039,,Q7190453,ca:Pic Morto,118
node,9138428718,Punta Alta de las Blancas de la Larri,,Pène Blanque,Punta Alta de las Blancas de la Larri,2902,42.7108889,0.1145861,,,,127
node,11951607450,,,,,2901.5,42.6186972,0.7210948,,,,44
node,4909236480,,,,,2901.1,42.586262,0.8842242,,,,42
node,4909236481,,,,,2901.1,42.5862395,0.88392,,,,17
node,1103938431,Pic de la Soucarrane ou de la Rouge,,Pic de la Soucarrane ou de la Rouge,,2901,42.6249356,1.4204281,324,Q17483012,ca:Pica Roja,329
node,1250019278,Tuca des Corbets,,,Tuca des Corbets,2901,42.6381638,0.4754009,216,,,220
node,1250032541,Tuca Baja,,,,2901,42.6475243,0.4397776,,,,-60
node,5814610734,,,,,2900.8,42.5740568,0.8889891,,,,29
node,1299322328,Pico de Gramatuero,,Grand Pic d'Arratille,Pico de Gramatuero,2900,42.7854795,-0.1783646,258,,,258
node,1402327774,Pic de Cauarère,,Pic de Cauarère,,2899,42.705256,0.3255532,,,,52
node,6869066218,,,,,2899,42.6922318,0.4741687,,,,79
node,13664636006,,,,,2898.2,42.5839295,0.8746214,,,,29
node,6880683559,Tuca Baja,,,Tuca Baja,2898,42.641776,0.4431621,,,,105
node,576676013,Pics de Bassiero - Punta Gourdon,,,,2897,42.6064755,0.9966796,,Q17481321,ca:Pics de Bassiero,75
node,6545247170,Turó de Tres Puntes,,,,2897,42.6371607,0.6996281,,,,50
node,1304152130,Pic de Lavans,,,,2896.0,42.6057977,1.4355193,,,,146
node,6545247169,,,,,2895,42.6367546,0.6994865,,,,43
node,6636720698,Pic de Pébignau,,,,2895,42.7959648,-0.0868973,,,,158
node,4032461111,la Creu de Colomers,,,,2894.9,42.5933412,0.9178773,,Q17481825,ca:La Creu de Colomèrs,160
node,575756401,Gran Pic del Pessó,,,,2894.0,42.5094803,0.9240888,317,Q11924604,ca:Gran Pic del Pessó,321
node,6534752902,Diente de Maladeta,,,,2894,42.656448,0.6342924,,,,46
node,6540399639,,,,,2894,42.5993584,0.6597832,,,,22
node,6880618030,El Cabo,,,,2894,42.6712925,0.434137,,,,20
node,9734518954,,,,,2893.6,42.6668907,1.3775754,,,,54
node,626949727,,,,,2893,42.6196141,0.6423941,,,,76
node,13664636166,,,,,2892.7,42.5924387,0.9142417,,,,60
node,9734558961,,,,,2892.5,42.6545074,1.4030101,,,,10
node,5013648789,,,,,2892.3,42.5539215,0.9794937,,,,19
node,5013648788,Pic dels Estanyets,,,,2892.2,42.5528022,0.9810099,,,,45
node,1250015830,Pico de las Neveras,,,,2892,42.7806124,-0.1795732,,,,111
node,6533398772,,,,,2892,42.6285994,0.6834534,,,,63
node,6533460733,,,,,2892,42.6266093,0.6236475,,,,54
node,4909236485,,,,,2890.9,42.5864422,0.886188,,,,58
node,577086124,Montsaliente,,,,2890.4,42.6031046,1.0086933,,Q11937508,ca:Montsaliente,192
node,652132467,Demeure Lagarat,,,,2890,42.8283763,-0.2747656,,,,191
node,626949744,Tuca de Barrancs,,,,2889,42.6373386,0.6832122,,,,74
node,6695519235,,,,,2889,42.6390647,0.4762607,,,,25
node,11098901148,Pic de Sanfons,,,,2888.9,42.5874667,1.4276602,,Q2209719,ca:Pic de Sanfonts,138
node,12376732233,mont Arrouy,,,,2888,42.7132523,0.1206199,,,,40
node,6880618010,Pyramide de Pouchergues,,,,2887,42.7037391,0.4658299,,,,54
node,577180419,Tuc des Estanhets,,,,2886.9,42.619254,0.8069927,201,Q11953331,ca:Tuc des Estanhets,219
node,3004378995,Pic Tort,,,,2886.4,42.5337406,0.9888381,,Q11941446,ca:Pic Tort,93
node,5029336341,,,,,2886.4,42.5877312,1.4308088,,,,13
node,4909152259,,,,,2886.2,42.5103806,0.9242457,,,,10
node,652132551,Pico de Tebarray,,,Pico de Tebarray,2886,42.7930998,-0.2706456,,,,146
node,1304116511,Pic de Baiau,,,,2886,42.5944398,1.4405939,,,ca:Pic_de_Baiau,61
node,6790492444,Pic Ronda,,,,2886,42.7008232,0.4934156,,,,14
node,5814610735,,,,,2885.4,42.5740691,0.8884709,,,,
node,9734518955,,,,,2885.1,42.6675832,1.3824005,,,,15
node,575756051,Punta d'Harlé,,,,2885.0,42.6104066,0.8426051,,Q11943923,ca:Punta d'Harlé,151
node,3307324677,Pic de Fonguero,,,,2884.5,42.5600232,1.0324914,,Q11941466,ca:Pic de Fonguero,176
node,7799198995,Tuca de Sen,,,Tuca de Sen,2884,42.6223475,0.4014651,,,,64
node,577180447,Tossal Pla,,,,2883.3,42.6148812,0.8127311,,,,134
node,3014258689,Montsent de Pallars,,,,2883.1,42.490117,1.0244168,245,Q6906569,ca:Montsent de Pallars,246
node,256698039,Malh des Pois o la Forcanada,,,,2883,42.6431231,0.7053786,,Q17482443,,119
node,652132462,Collarada,,,Collarada,2883,42.7142215,-0.470631,800,Q960756,,1091
node,1060153567,Tusse de Montarqué,,,,2883,42.7042631,0.4989672,,,,86
node,6886018967,,,,,2883,42.6328389,0.4214095,,,,28
node,10875185409,Punta Chabarrón,,,,2883,42.7969322,-0.1593545,,,,65
node,9732090154,,,,,2882.5,42.6060508,0.9952179,,,,80
node,3307608327,Pala Pedregosa de Llessui,,,,2882.4,42.5164584,1.0231629,,Q17482905,ca:Pala Pedregosa de Llessui,
node,4359161470,,,,,2882.0,42.5158035,1.0232088,,,,175
node,45196117,Pic de Maubermé,,Pic de Maubermé,,2881.6,42.7937503,0.9171433,796,Q11953291,es:Mauberme,797
node,3010400600,Pic Inferior de Subenuix,,,,2881.6,42.5598905,0.9797774,,Q11941430,ca:Pic Inferior de Subenuix,120
node,652132358,El Peñón o Pico Serrato,,,El Peñón o Pico Serrato,2881,42.7784844,-0.2051025,,,,138
node,6555880959,Tuca de Guadiesso,,,,2881,42.5864969,0.6530035,,,,39
node,11648611960,Bastiments,,,,2881,42.4262168,2.2328606,276,Q3138291,ca:Pic de Bastiments,280
node,5013648785,,,,,2880.7,42.5527733,0.9901804,,,,73
node,5814610736,,,,,2880.5,42.5741478,0.8883363,,,,22
node,579950706,Piolet de Bastiments,,,,2880,42.42688,2.2308617,,,,12
node,577086007,Pic de Sobremonestero,,,,2879.6,42.5440153,0.9949036,,Q11941506,ca:Pic de Sobremonestero,166
node,4909236478,,,,,2879.5,42.5862466,0.8873364,,,,26
node,575756297,Tuc Blanc,,,,2879.1,42.5910161,0.9305248,,Q17588122,ca:Tuc Blanc,113
node,9732090155,,,,,2879.1,42.6057826,0.994997,,,,79
node,5814610737,,,,,2878.4,42.5741003,0.8880578,,,,26
node,1091885288,Pic des Bacherets,,,,2878,42.7155551,0.3997216,,,,53
node,3669894087,Pic de Tristagne,,Pic de Tristagne,,2878,42.6534813,1.4937644,336,Q3382394,,339
node,5110053174,Pointe de France,,,,2878,42.843766,-0.4381901,,,,796
node,13664715855,,,,,2877.8,42.5910969,0.8332309,,,,69
node,3307324678,Pic de Monestero,,,,2877.4,42.5468451,1.0188243,,Q11941478,ca:Pic de Monestero,159
node,26864245,Pic du Midi de Bigorre,,,,2877,42.9367764,0.1416107,762,Q1139060,fr:Pic du Midi de Bigorre,777
node,575967432,Tuc de la Feixa de la Vall,,,,2877,42.6198116,0.7172748,,,,72
node,652132475,Diente de los Batanes N,,,Diente de los Batanes N,2877,42.7703019,-0.2005023,,,,46
node,2287097475,Pic de Bugatet,,,,2877,42.8048984,0.1706538,,Q3382359,,183
node,3187523551,Pico Cerrez,,,Pico Cerrez,2877,42.7690144,-0.2796814,,,,78
node,6869066214,Fitas de O,,,,2877,42.6900205,0.4704773,,,,28
node,11646993808,Pic de Font Negra,,,,2877,42.5225174,1.7522544,362,,,362
node,4881929616,Pic des Mussoles,,,,2876.5,42.5152995,0.92959,,Q17482851,ca:Pic de les Mussoles,148
node,3706941321,Pic de la Pala Gespadera,,,,2876.3,42.5724809,0.8819379,,Q11941541,ca:Pic de la Pala Gespadera,101
node,3706941319,Bony d’Aigüissi,,,,2876.1,42.5716896,0.8814562,,Q17481200,ca:Bony d’Aigüissi,
node,6695519236,,,,,2876,42.638565,0.4757837,,,,6
node,6880618001,,,,,2876,42.6931252,0.4587699,,,,59
node,6886018957,,,,,2876,42.6301107,0.4325924,,,,47
node,9309943764,,,,,2876,42.6929695,0.459644,,,,51
node,13380648165,Passage de Badet,,,,2876,42.8327996,-0.0680245,,,,15
node,1660223288,Alt del Griu,,,,2875,42.5251435,1.6512392,216,Q21329776,ca:Alt del Griu,229
node,7554312192,,,,,2874,42.6896979,-0.0669606,,,,55
node,9311725909,,,,,2874,42.6394763,0.4765923,,,,12
node,989465054,Pico Royo,,Pic d'Aygues Tortes,Pico Royo,2873,42.6911573,0.4262878,256,,,263
node,3706616059,Pic de Baserca,,,,2872.7,42.5871251,0.7998378,,Q11941455,ca:Pic de Baserca,128
node,4341202648,,,,,2872.4,42.5143685,1.0234315,,,,26
node,7554206223,,,,,2872,42.6903982,-0.031304,,,,85
node,7554206225,,,,,2872,42.6909757,-0.0331373,,,,95
node,6545247175,,,,,2871,42.6425293,0.7049083,,,,60
node,12379467017,Cabaillé de Soum d'Aubiste,,,,2870,42.8278351,-0.0694022,,,,179
node,4909236436,Pui de Linya,,,,2869.6,42.5659868,1.0432516,,Q11943315,ca:Pui de Linya,116
node,1774479483,Pic de l'Infern,,,,2869.5,42.4239376,2.2137426,,Q4314599,ca:Pic de l'Infern,168
node,1250022021,Cap de Llauset,,,,2869,42.6041432,0.6771561,,,,73
node,3708330520,Collado d'Alfred,,,Collado d'Alfred,2869,42.6357142,0.6998511,,,,14
node,7547061187,,,,,2869,42.6667985,0.0400335,,,,3
node,9013437739,Mont Rouch de France,,,,2868,42.7117214,1.1768555,,,,654
node,626639367,Pic Ruben Pantet,,,,2867,42.8206283,-0.2294714,,,,74
node,2008249176,Pic de Setut,,,,2867,42.4686467,1.6467197,,,,37
node,494455699,Pico del Ibonet,,Pic d'Arriouère,Pico del Ibonet,2866,42.7115242,0.2607812,247,,,285
node,1250039970,Punta Fulsa,,,,2866,42.6608177,0.2674274,227,Q24000975,,261
node,6540399645,,,,,2866,42.6039573,0.6785262,,,,28
node,6886018959,,,,,2866,42.6306547,0.4336461,,,,30
node,5013744634,,,,,2865.7,42.5558457,1.0291528,,,,50
node,4341202654,,,,,2865.1,42.5180182,1.0257192,,,,63
node,1250030887,Tuca de Mincholet,,,,2865,42.6465006,0.4801619,,,,165
node,26864235,Mont Rouch d’Espagne,,Mont Rouch d’Espagne,,2864.4,42.71068,1.1768307,647,Q5120047,ca:Mont-roig (Alt Àneu),45
node,2189429137,Pessons,,,,2864,42.5081311,1.6646722,,Q21330136,,136
node,579973382,Pic de Calm Colomer,,,,2863,42.4924406,1.7299782,224,Q63808439,ca:Pic de Calm Colomer,236
node,6533460736,,,,,2863,42.6243551,0.6222838,,,,40
node,7799187970,Pico Bagüeña,,,Pico Bagüeña,2863,42.6147709,0.4124481,,,,53
node,575756056,el Pa de Sucre,,,,2862.6,42.6135619,0.8464496,,Q11918422,ca:El Pa de Sucre,155
node,3014258688,Montorroio,,,,2862.4,42.503108,1.0311336,224,Q11937485,ca:Montorroio,183
node,13664636165,,,,,2862.2,42.5918404,0.9245333,,,,88
node,2188365879,Pic de la Cabaneta,,,,2862,42.6135315,1.6073176,,Q21329212,,137
node,6886018964,Forcau Alto,,,,2862,42.6302214,0.441444,,,,114
node,4909236469,,,,,2861.9,42.5719225,0.8820654,,,,17
node,5814610738,,,,,2861.6,42.5740174,0.8876024,,,,53
node,4909067292,,,,,2861.4,42.5817965,0.9017373,,,,20
node,9894479394,,,,,2861.4,42.4921158,1.7292193,,,,11
node,577086386,Tuc de Ratera,,,,2861.3,42.6013495,0.9534013,,Q11953299,ca:Tuc de Ratera,139
node,488467098,Pic de les Nou Fonts,,,,2861,42.4248996,2.1676294,210,Q1269228,ca:Pic de Nou Fonts,217
node,733939398,Gerretet,,,,2861,42.8064594,-0.1660442,,,,120
node,6545247176,,,,,2861,42.6435599,0.7048616,,,,96
node,8914422610,,,,,2860.7,42.7116404,1.1766499,,,,18
node,45160950,Agulla de Baiau,,,,2860.5,42.590256,1.4341742,,Q21330590,ca:Agulla de Baiau,56
node,494178274,Petit Pic d'Arratille,,,,2860,42.7874453,-0.1835751,,,,68
node,1304133663,Tossal de la Muga,,,,2860,42.4747593,1.6776356,,Q17482826,ca:La Muga (Lles de Cerdanya),149
node,3686735589,Pic de Gerri,,,,2859.8,42.597527,1.3942471,,Q11941470,ca:Pic de Gerri,186
node,3904343939,Pic del Pla de l'Estany,,,,2859.7,42.6067878,1.4640241,,Q21330160,,183
node,623866309,Pico de Castanesa,,,,2858,42.571983,0.605631,272,Q24002552,,278
node,2188747920,Ensagents,,,,2857,42.5203511,1.6601654,,,,83
node,2295056709,Pic de la Coume de Seignac,,,,2857,42.6285683,1.6093857,,Q115581363,,64
node,575756366,Pic de Mariolo,,,,2856.7,42.5307206,0.9576317,279,Q17482856,ca:Pic de Nariolo,227
node,13664636164,,,,,2856.7,42.591408,0.9231278,,,,35
node,4975018907,Pic d'Espingo,,,,2856,42.7388053,0.4624818,,,,183
node,12376744238,puic de la Coum de l'Ours,,,,2855,42.8316016,0.0964659,,,,101
node,6545247174,,,,,2854,42.641753,0.7031711,,,,56
node,6880618000,,,,,2854,42.692969,0.460272,,,,5
node,7799198996,Aguja del Sen Oriental,,,Aguja del Sen Oriental,2854,42.6231241,0.4003719,,,,59
node,1329675213,Pic de Certascan,,,,2853.3,42.7119892,1.2776779,513,Q11941458,ca:Pic de Certascan,516
node,6880618005,Forca de Clarabide,,,Forca de Clarabide,2853,42.6938822,0.4541133,,,,83
node,579973002,Tosseta de Vallcivera,,,,2852,42.4747886,1.6624011,,Q11952912,ca:Tosseta de Vallcivera,99
node,3996878092,,,,,2851.8,42.6323075,0.705758,,,,30
node,576091653,Pic de Ventolau,,,,2851.5,42.6906524,1.1904285,245,Q11941513,ca:Pic de Ventolau,252
node,1092109806,Pic de la Géla,,,,2851,42.7482045,0.1387637,,,,152
node,7554206222,,,,,2851,42.6897459,-0.0297248,,,,16
node,12969646990,Pic de la Galdelha,,,,2851,42.6501463,1.414412,,,,67
node,4909068521,,,,,2850.8,42.5820537,0.9023312,,,,13
node,3904343915,,,,,2850,42.6055402,1.4631586,,,,18
node,576676028,Pic d'Amitges,,,,2848.5,42.6090872,0.9867663,,Q17481240,ca:Pic d'Amitges,158
node,13038747290,Pic dels Gorgs,,,,2848.2,42.4229912,2.2148475,,Q56401306,ca:Pic dels Gorgs (Queralbs),12
node,6570383086,,,,,2848,42.6949097,0.5127437,,,,5
node,6871697544,,,,,2848,42.6874041,0.5424632,,,,37
node,12379467013,pouey Mourou,,,,2848,42.772035,-0.0997151,,,,112
node,3307353614,Tuc Inferior de Saburó,,,,2847.9,42.5379632,1.0219916,,Q11953265,ca:Tuc Inferior de Saburó,72
node,1250032600,Tuca Blanca de Paderna,,,,2847,42.6646509,0.6202887,,,,104
node,2296094273,Petit Quayrat,,,,2847,42.722918,0.5180157,,,,133
node,45195770,Pic de la Tartera,,,,2846.3,42.7081576,1.171044,,,,33
node,666793954,Pointe de Roumazet,,Pointe de Roumazet,,2846.1,42.6400106,1.4174218,,Q17483396,ca:Punta de Romaset,142
node,1060153572,Tuca del Puerto Viello de Gorgutes,,Mail Pintrat,Tuca del Puerto Viello de Gorgutes,2846,42.6946694,0.5875472,,,,181
node,1250038741,Pico Batisielles Sur,,,,2846,42.6486711,0.4824164,,,,66
node,3188708648,Punta Feniás,,,,2846,42.7627801,-0.2753458,,,,28
node,8933645504,,,,,2845.9,42.707201,1.1706765,,,,24
node,626949773,Pic dera Gerbosa,,,,2845.7,42.6339639,0.7147041,,,,128
node,1250018699,Pico Mondarruego,,,Pico Mondarruego,2845,42.6768295,-0.0806527,,,,172
node,1250026636,Pico Tendeñera,,,,2845,42.6798404,-0.1993344,494,,,506
node,6764370031,,,,,2845,42.6501563,0.4829528,,,,60
node,6886018962,,,,,2845,42.6305031,0.4402485,,,,25
node,4341202653,,,,,2844.3,42.5176917,1.0254207,,,,33
node,1089570485,Pic de Nord Nère,,,,2844,42.743332,0.4627796,,,,52
node,6535636063,,,,,2844,42.6206079,0.6765903,,,,5
node,577086376,Tuc del Bergús,,,,2843.8,42.5942283,0.9528148,,Q11953320,ca:Tuc del Bergús,114
node,579893621,Pic de Segre,,,,2843.2,42.3970608,2.1213317,,Q1477225,ca:Pic del Segre,100
node,3732195307,Pic dels Llops,,,,2843.2,42.5051008,1.6492674,,,,115
node,6790492441,,,,,2843,42.7007769,0.4901401,,,,5
node,7552075767,,,,,2843,42.6965802,0.0503509,,,,202
node,577180441,Tossau deth Lac Tòrt,,,,2842.6,42.6194787,0.81302,,,,83
node,1304121512,Tossal Bovinar,,,,2842.3,42.4627326,1.6316843,,Q11952606,ca:Tossal Bovinar,165
node,6185638278,Puig Pedrós Sud,,Puig Pedrós Sud,,2842,42.5885591,1.8730538,,,,448
node,3004378996,Pic de Mar,,,,2841.9,42.5385789,0.9985287,,Q11941474,ca:Pic de Mar,40
node,6540399646,,,,,2841,42.6048169,0.6766787,,,,30
node,4909236455,,,,,2840.5,42.5738469,0.8866145,,,,66
node,13038747292,,,,,2840.3,42.4354539,2.2309776,,,,75
node,5705550274,Pic des Hermintans,,,,2840,42.7248076,0.4615926,,,,72
node,45195649,Pic de Certescans,,Pic de Certescans,,2839.9,42.7140699,1.2781385,,,,38
node,7618487726,Pic de Solana Carnicera,,,,2839,42.5609,1.93296,,Q136783951,,106
node,986027125,Mont Valier,,,,2838,42.7978573,1.0857291,515,Q2420742,fr:Mont Valier,510
node,4909067291,,,,,2838.0,42.5746745,0.9105932,,,,44
node,7053846468,,,,,2838,42.651043,0.2958679,,,,18
node,4909068522,,,,,2837.2,42.5831491,0.9037115,,,,42
node,10889694110,Agulla de Ixeia,,,,2837,42.6345976,0.5081596,,,,266
node,2963244758,,,,,2836,42.6943538,0.4530101,,,,57
node,579972678,Pic de la Colilla,,,,2835.8,42.4654689,1.6205712,,Q11941529,ca:Pic de la Colilla,90
node,5001911306,,,,,2835.8,42.6097548,0.8450531,,,,76
node,9894479396,Tosseta de l'Esquella,,,,2835.3,42.4897575,1.7270612,,,,40
node,1241890180,Pico Feniás,,,,2835,42.7584205,-0.2724642,,,,79
node,6792019831,,,,,2835,42.797194,1.0870995,,,,63
node,12376685029,pic de Sarrouès,,,,2835,42.7479417,0.2660804,,,,147
node,579950698,Pic de Freser,,,,2834,42.4230207,2.219353,,Q7190461,ca:Pic de Freser,54
node,1250021484,Pico de la Madera,,,,2834,42.6892857,0.4362318,,,,116
node,6545247172,,,,,2834,42.6397787,0.7009639,,,,66
node,5858399162,,,,,2833.3,42.6089836,0.9877177,,,,22
node,255545199,Montardo,,,,2833.2,42.6333384,0.8753441,297,Q3176503,ca:Montardo,305
node,3887551586,Pic Alt del Cubil,,,,2833,42.5277991,1.6702976,,Q21329471,fr:Pic Alt del Cubil,184
node,4076411217,Pic Occidental de Coll Roig,,,,2833,42.5493296,1.916977,,,,111
node,13664636155,,,,,2832.5,42.5905332,0.9110767,,,,60
node,575756055,Mussol de Tumeneia,,,,2832.3,42.6131406,0.8450175,,Q11938114,ca:Mussol de Tumeneia,86
node,494455720,Pico de la Espada,,,,2832,42.6932141,0.2638199,244,,,253
node,6880618025,,,,,2832,42.6713691,0.4420537,,,,25
node,7188662214,,,,,2832,42.7083146,1.1735739,,,,13
node,11646994176,Puig Pedros,,,,2832,42.5899471,1.8737043,,,,67
node,577086329,,,,,2831.8,42.5284632,1.0363247,,,,56
node,9894479393,Pic d'Engorgs Occidental,,,,2831.6,42.4944341,1.7379992,,,,37
node,577086147,Pui Pla,,,,2831.2,42.5955752,1.006385,,Q11943304,ca:Pui Pla,87
node,13664444223,,,,,2831.2,42.5900119,0.8814034,,,,110
node,736135862,Arbizon,,,,2831,42.8759675,0.2726372,366,Q2859683,,377
node,4909236457,,,,,2831.0,42.5735276,0.8856479,,,,41
node,9032969284,Puig Pédrós Nord,,,,2831,42.5899661,1.8737547,,,,26
node,11646993838,La Tour d’Eyne,,,,2831,42.4344429,2.1471338,,Q56401322,ca:Torre d'Eina,171
node,3707866582,Pics de Comalespada,,,,2830.2,42.5939849,0.8787731,,Q11941582,ca:Pics de Comalespada,131
node,576676035,Pic de Saboredo,,,,2829.5,42.607898,0.981021,,Q17483433,ca:Pic de Saboredo,78
node,4341202651,,,,,2829.5,42.5174633,1.0248512,,,,28
node,9732090157,,,,,2829.2,42.6048541,0.9944447,,,,72
node,1250039400,Punta Mauri,,,,2829,42.6908789,0.439686,,,,38
node,1713395970,Pic d'Estom Soubiran,,,,2829,42.7780941,-0.0968436,,,,103
node,5029336347,Pic de Palomer,,,,2828.6,42.5942196,1.4018587,,Q11941488,ca:Pic de Palomer,141
node,652132514,Peña de Xuans,,,,2828,42.7729726,-0.2069807,,,,74
node,6695519234,,,,,2828,42.6360508,0.4745263,,,,37
node,12379467018,Soum d'Aubiste,,,,2828,42.8257709,-0.0660265,,,,45
node,576675974,Pic de Xemeneies,,,,2827.5,42.6217368,1.0068299,,Q11941515,ca:Pic de Xemeneies,100
node,575755991,Pic del Cap d'Estany Roi,,,,2827.3,42.5854124,0.8004514,,Q17483372,ca:Pic del Cap d'Estany Roi,34
node,640369781,Pic de Finestrelles,,,,2827,42.4144346,2.1334676,,Q7190460,ca:Pic de Finestrelles,147
node,7554312195,,,,,2827,42.6880874,-0.0705389,,,,73
node,4909236465,,,,,2826.9,42.5706326,0.8798062,,,,15
node,26863527,Le Lurien,,,,2826,42.857275,-0.3503721,574,,,570
node,46471006,Pic Inferior de la Vaca,,,,2826,42.4165786,2.2015791,,,,100
node,1250023524,Pic Blanc,,,,2826,42.7039831,0.0706296,228,,,244
node,3630882889,Ribuls,,,,2826,42.5065384,1.6717094,,Q21332155,,51
node,8479233314,Puig de Coma d'Or,,,,2826,42.5832391,1.8738633,,,,
node,11646993807,Puig de la Coma d'Or,,,,2826,42.5835948,1.8736533,,Q65212528,ca:Puig de Coma d'Or,153
node,5013648783,,,,,2825.9,42.5476071,0.9924493,,,,79
node,577086338,,,,,2825.7,42.5285347,1.0324746,,,,47
node,623866320,Tuca de Lliterola,,,Tuca de Lliterola,2825,42.6805103,0.564377,,,,158
node,2287097428,Petit pic des Alharisses,,,,2825,42.8154755,0.1280277,,,,100
node,6695519233,,,,,2825,42.6355337,0.4743814,,,,51
node,576676026,,,,,2824.9,42.6097446,0.9906554,,,,89
node,5858553711,,,,,2824.4,42.6137573,0.9980676,,,,95
node,652132535,Pico de Arriel,,Pic d'Arriel,Pico de Arriel,2824,42.834117,-0.3312968,378,Q3382351,fr:Pic d'Arriel,378
node,5859152448,,,,,2823.1,42.6077083,0.9790593,,,,40
node,3887509502,Pic d'Engaït,,,,2823.0,42.5172794,1.7214759,,,,174
node,7052367077,,,,,2823,42.6601788,0.2690292,,,,34
node,652132532,Peyregnets de Cambalès,,,,2822,42.8329467,-0.2439308,,,,158
node,5568219501,Punta de las Coronas,,,,2821,42.5215748,0.3220937,,,,183
node,6543123300,,,,,2821,42.6221288,0.7060791,,,,
node,6543123301,,,,,2821,42.6217485,0.7066666,,,,82
node,6543123304,,,,,2821,42.6205256,0.7103438,,,,38
node,6764370027,,,,,2821,42.6464795,0.4749615,,,,37
node,5001911309,,,,,2820.6,42.6086565,0.8406294,,,,72
node,46471031,Pic Superior de la Vaca,,,,2820,42.4174253,2.2064819,,,,34
node,4745588741,Faux pic de l'Étang Fourcat,,,,2820,42.6514903,1.4787577,,,,155
node,3630850280,Ribuls Occ.,,,,2819,42.5057309,1.6712889,,,,28
node,6869066307,Pico de Añes Cruces,,,Pico de Añes Cruces,2819,42.6912947,0.434494,,,,18
node,2388436747,Pic d'Engorgs,,,,2818,42.4947926,1.7443567,,Q17483007,ca:Pic d'Engorgs,57
node,3632502329,Pic de la Cabaneta,,,,2818,42.5887795,1.7337264,410,Q21329211,,
node,3632608353,Tosa de Siscaro,,,,2818,42.5890571,1.7267866,,,,409
node,5374902054,Pic de Tuquerouye,,Pic de Tuquerouye,,2818,42.6990024,0.0373901,,,,159
node,6543123306,,,,,2818,42.6200892,0.7116001,,,,35
node,6886018960,,,,,2818,42.6302641,0.4368643,,,,69
node,9734518957,,,,,2817.8,42.662435,1.3840485,,,,52
node,5013744635,,,,,2817.1,42.5532764,1.0236694,,,,40
node,5858399159,,,,,2817.1,42.6093104,0.9889748,,,,46
node,3630882890,Ribuls Or.,,,,2817,42.5073047,1.6728814,,,,37
node,733939396,Pic d'Estibe Aute,,,,2816,42.8062715,-0.1234507,231,,,230
node,734137576,Pic d'Artouste,,,,2816,42.8549763,-0.3097375,,,,67
node,1250032139,Tuca Arnau,,,,2816,42.5948698,0.6431864,,,,27
node,5858399158,,,,,2815.9,42.6095154,0.9894097,,,,42
node,3631160836,Pic Negre d'Envalira,,,,2815.8,42.5184613,1.7224887,,Q15918235,en:Pic Negre d'Envalira,68
node,1304130296,Pic de l'Estany Fondo,,,,2815,42.6536134,1.3944503,,Q7190470,ca:Pic de l'Estany Fondo,86
node,639632022,Pic de la Vinyola,,,,2814,42.5253486,1.7723908,,,,97
node,652132497,Punta de la Ripera,,,Punta de la Ripera,2814,42.6789452,-0.2072382,,,,111
node,1250037260,Pico Royo de la Paúl,,,,2814,42.6728621,0.4416002,,,,17
node,4000702671,,,,,2814,42.5071217,1.6445447,,,,31
node,733939399,Grand Barbat,,,,2813,42.8651051,-0.1947991,234,Q3113513,,260
node,1250023888,Tuca de Anglios,,,,2813,42.6006879,0.6930537,,,,143
node,6875982148,,,,,2813,42.7032998,0.5383956,,,,33
node,9265851392,,,,,2813,42.6763028,0.0161505,,,,11
node,577180457,Tuc dera Canau de Rius,,,,2812.8,42.6107351,0.8218624,,Q17481516,ca:Tuc dera Canau de Rius,64
node,4341202646,,,,,2812.1,42.5075325,1.0301711,,,,24
node,626949734,Pico Collado de Vallibierna,,,,2812,42.5996853,0.6722071,,,,91
node,4314643589,Pic de Belle Sayette,,,,2812,42.7362409,0.4423411,,,,101
node,6543123302,,,,,2812,42.6213194,0.7075605,,,,67
node,7552081147,,,,,2812,42.6993746,0.0355158,,,,121
node,3706616060,Pic de Coma les Torres,,,,2811.9,42.5891088,0.8360192,,Q17481754,ca:Pic de Comalestorres,67
node,576675980,los Tres Puis,,,,2811.1,42.6170899,1.0005857,,Q11933988,ca:Los Tres Puis,39
node,3632502330,Roc Mele,,,,2811,42.5878322,1.7419388,,Q21328906,,42
node,6571856979,,,,,2811,42.5919537,0.6691541,,,,26
node,46470893,Pic Petit de Segre,,,,2810,42.3945884,2.1148482,,Q7190454,ca:Pic Petit de Segre,47
node,11649674789,Pic Péric,,,,2810,42.6135585,1.9844075,384,Q11943424,ca:Puig Peric,383
node,2186955423,Pic de Coma Extrema,,,,2809.4,42.4680891,1.6361739,,,,114
node,576798442,Bony del Manyer,,,,2809,42.4736573,1.733021,,Q17481396,ca:Bony del Manyer,120
node,1092110171,Pic de Gabiédou,,,,2809,42.7162751,0.0843088,,,,188
node,6551687776,Pico Soubirón,,,,2808,42.6020679,0.698234,,,,80
node,6871181749,Pico Perdigueret,,,,2808,42.6798018,0.5349854,,,,125
node,7053846465,,,,,2808,42.6566481,0.2831177,,,,41
node,2160030067,Pic de la Fossa del Gegant,,,,2807.7,42.4173254,2.1904979,,Q3382408,ca:Pic de la Fossa del Gegant,88
node,6635817020,Pics d'Estaubé,,,,2807,42.7181685,0.068234,,,,83
node,9116326153,Petit Pic du Midi d’Ossau,,,,2807,42.8418966,-0.4409801,,,,237
node,3940779554,Bony del Manyer (nord),,,,2806.6,42.4769771,1.729871,,,,39
node,5013744631,,,,,2806.3,42.5379557,1.0046561,,,,58
node,7618494687,Carlit de Baix,,,,2806,42.573,1.93773,,Q65207648,,53
node,5029336349,,,,,2805.9,42.6029778,1.3734891,,,,61
node,4341202645,,,,,2805.5,42.5063756,1.0301342,,,,12
node,5001911312,,,,,2805.5,42.6086174,0.8364512,,,,52
node,494178416,Pic de la Badète d'Arratille,,,,2805,42.7915216,-0.1917026,,,,89
node,626949731,,,,,2805,42.6401281,0.6857013,,,,29
node,6636720696,Pic de Culaus,,,,2805,42.8094097,-0.0773486,,,,110
node,1250021335,Pico Batisielles Norte,,,,2804,42.6549462,0.4799522,,,,88
node,1250029493,,,,,2804,42.6801089,0.5347614,,,,59
node,11646993879,Pic Oriental de Coll Roig,,,,2804,42.5533534,1.9235169,,Q65212523,,46
node,1091885476,Pic d'Arrouyette - Pic d'Estos,,,,2803,42.7507479,0.3838418,,,,233
node,8808608215,Pic de les Tosses,,,,2803,42.5454853,1.9138647,,,,36
node,4909236467,,,,,2802.6,42.5702272,0.8785966,,,,17
node,577086302,les Picardes,,,,2802.4,42.5271488,1.0526778,,Q113057629,,117
node,1091885528,Pic de Barlonguère,,Pic de Barlonguère,,2802.4,42.7885614,1.0098512,296,Q17587743,ca:Tuc de Barlonguèra,325
node,4909236450,Pic de Dellui,,,,2802.2,42.5385989,0.9536775,,Q11941465,ca:Pic de Dellui,138
node,1250017266,Pico Inferior de Añisclo / O Zucón,,,,2802,42.6512999,0.0792282,349,,,359
node,6869066304,,,,,2802,42.6913456,0.4432902,,,,54
node,474976107,Piméné,,,,2801,42.7356146,0.021642,378,,,393
node,2572711668,Puigmal de Llo,,,,2801,42.3950066,2.1088833,,Q63439587,ca:Puigmal de Llo,56
node,6764370028,,,,,2801,42.6461894,0.477944,,,,14
node,6764370094,Agulles del Posets,,,,2801,42.6618427,0.4645319,,,,34
node,5001911310,,,,,2800.9,42.608031,0.8392789,,,,28
node,488467153,Pic de Noucreus,,,,2800.6,42.4194914,2.1841979,,Q7190463,ca:Pic de Nou Creus,30
node,575756388,Cap de Reguera,,,,2800.5,42.5180912,0.9449049,,Q17483264,ca:Cap de Reguera,84
node,1304107785,Roc de Lliçà,,,,2800,42.4741186,1.7233647,,Q11945831,ca:Roc de Lliçà,44
node,4148445322,Tossal des Mussoles,,,,2800.0,42.5184035,0.9275249,,Q17481872,ca:Dent des Mussoles,69
node,1304139376,Pic d'Areste,,,,2799,42.6396875,1.3962141,,Q11941447,ca:Pic d'Areste,141
node,9272910897,,,,,2799,42.6525536,0.0776398,,,,31
node,46471064,Noucreus,,,,2798.4,42.4181882,2.1804147,,,,15
node,824527187,Pic de Garlitz,,,,2798,42.7465738,0.2147315,347,Q3382370,,356
node,2160114236,Pic de Tirapits,,,,2798,42.415002,2.2107323,,,,21
node,11591051845,Tuca de Ixeia,,,,2798,42.6337903,0.504905,,,,53
node,5013648778,,,,,2797.6,42.5414317,0.9957153,,,,91
node,1250019461,Tucon de Chuise,,,,2797,42.6355589,0.5127702,,,,54
node,5489388426,Soum de Male,,,,2797,42.7857663,-0.0526219,242,,,249
node,6551687778,,,,,2797,42.5998175,0.7017303,,,,39
node,4341202650,,,,,2796.6,42.5173686,1.0227748,,,,48
node,13038747289,,,,,2796.3,42.4209132,2.2122203,,,,17
node,9316079235,,,,,2796,42.6669908,0.4521133,,,,12
node,6540006785,,,,,2795.9,42.6321598,0.7098285,,,,44
node,45195659,Pic de Montabone,,Pic de Montabone,,2795.2,42.7187309,1.2748809,,Q11953290,ca:Tuc de Montabòna,86
node,5013458287,,,,,2795.2,42.5497585,0.9661316,,,,136
node,1250035442,Pico del Chinipro,,,,2795,42.6961706,0.1158208,264,,,261
node,6871769031,,,,,2795,42.680978,0.5340837,,,,54
node,626949783,Pico Chistau,,,,2794,42.6836028,0.4398819,,,,29
node,5568219505,,,,,2794,42.5213081,0.3177911,,,,54
node,6880618003,,,,,2794,42.6925508,0.456676,,,,17
node,7192015353,Pic de les Valletes,,,,2794,42.5275352,1.7789751,,,,91
node,9876493079,,,,,2794.0,42.6676537,1.3653993,,,,13
node,11951607453,Pico del Mich de la Tallada,,,Pico del Mich de la Tallada,2794,42.6153552,0.7320482,,,,160
node,2475149333,Pic de Bernat Barrau,,,,2793,42.8385124,-0.216004,,,,208
node,5013744632,Pic de la Cabana,,,,2793,42.5541798,1.0379632,,,,29
node,6533460734,,,,,2793,42.6278114,0.6256081,,,,10
node,6869066309,,,,,2793,42.6849516,0.4361213,,,,23
node,6888718639,Pico de Aguas Tuertas,,,,2793,42.6930558,0.4208844,,,,64
node,4881929617,Pic Petit del Pessó,,,,2792.8,42.5034371,0.917186,,Q11933773,ca:Lo Pessó Petit,107
node,1250015088,Morrón de Arrablo,,,Morrón de Arrablo,2792,42.6625451,0.0363879,,,,75
node,6712486094,,,,,2792,42.6548159,0.4787642,,,,14
node,6887943599,,,,,2792,42.6921712,0.3900052,,,,17
node,1677328883,Cim Alt de les Arques,,,,2791.8,42.4104242,2.1890017,,Q11913779,ca:Cim Alt de les Arques,61
node,5858399164,,,,,2791.8,42.6082068,0.986583,,,,27
node,1990953672,Tuc des Carants,,,,2791.4,42.5140459,0.9033353,,Q11953327,ca:Tuc des Carants,144
node,1894423590,Montmalús,,,,2791,42.5089556,1.6865628,,Q2717368,ca:Pic de Montmalús,99
node,6540399635,Cuello de Culebres,,,,2791,42.5933197,0.6463292,,,,4
node,13610302807,,,,,2790.7,42.6031267,1.3782719,,,,12
node,575756325,Cap de la Pala Alta d’Estany Llong,,,,2790.3,42.5818426,0.9418204,,Q11912126,ca:Cap de la Pala Alta d’Estany Llong,101
node,640369795,Pic de Núria,,,,2790,42.4166272,2.1430472,,Q11941490,ca:Pic de Núria,34
node,488467077,Pic d’Eyne,,,,2789.0,42.4234778,2.1569382,,Q1742230,ca:Pic d'Eina,63
node,623866328,Tuqueta de Arnau,,,Tuqueta de Arnau,2789,42.5961215,0.6345654,,,,106
node,5029336345,Pic d'Escorbes,,,,2788.9,42.5983835,1.4112911,,Q17481941,ca:Pic d'Escorbes,51
node,3421804427,Pic de Salòria,,,,2788.8,42.5144541,1.3851452,486,Q7190467,ca:Pic de Salòria,487
node,6540006788,,,,,2788.6,42.6350246,0.7162017,,,,30
node,4000702670,,,,,2788,42.5034811,1.6356107,,,,31
node,9904595872,,,,,2787,42.6032054,0.6865677,,,,62
node,12376744240,pic Prudent,,,,2787,42.8351086,0.0934221,,,,44
node,1250022961,Punta Eydoux,,,,2786,42.6915493,0.4454312,,,,35
node,10011919958,,,,,2786,42.7445185,0.2130935,,,,42
node,5013458288,,,,,2785.9,42.551092,0.9685337,,,,55
node,5029336353,,,,,2785.9,42.6020149,1.3666932,,,,40
node,1414634577,Pic de Rulhe,,,,2785,42.6271653,1.7389471,239,Q129571981,,267
node,2295073024,Pic Fouillouse,,,,2785,42.695375,0.5790551,,,,87
node,2475150721,Pic Arrouy,,,,2785,42.849215,-0.2005573,,,,220
node,6551687760,,,,,2785,42.6035133,0.686065,,,,44
node,7175374372,,,,,2785,42.6955241,0.5801596,,,,85
node,7618628195,Pic de Sobirans,,,,2785,42.5771,1.94211,,,,33
node,9292087340,,,,,2785,42.7066321,0.0721121,,,,116
node,9292087344,Punta del Puerto Viejo,,,,2785,42.7081326,0.0714836,,,,115
node,12400888997,l'Esquella,,,,2785,42.5167037,1.7437191,,,,50
node,12407611213,Pic de Raco Petit,,,,2785,42.4400637,2.1859597,,,,210
node,35308286,Pic du Canigou,,,,2784.66,42.5189047,2.4565596,550,,,557
node,577181186,Tuc de Conangles,,,,2784.4,42.6269122,0.8050717,,Q11953281,ca:Tuc de Conangles,122
node,4315547124,Pitón Von Martin,,,,2784,42.8468106,-0.3146948,,,,119
node,6806692611,,,,,2784,42.6826813,0.5504049,,,,80
node,7552075769,,,,,2784,42.6974009,0.0438157,,,,72
node,7799210849,Aguja del Sen Central,,,Aguja del Sen Central,2784,42.6249019,0.3957863,,,,45
node,1677328898,Rocs Blancs,,,,2783.9,42.4078863,2.1853211,,Q11946102,ca:Rocs Blancs (Queralbs),23
node,5013458283,,,,,2783.8,42.5457875,0.9624879,,,,52
node,5859152447,,,,,2783.7,42.6092016,0.9811213,,,,71
node,8893044935,,,,,2783.5,42.4751186,1.6658925,,,,20
node,13072083490,,,,,2783.2,42.6720339,1.378409,,,,87
node,575756068,Tumeneia,,,,2783.1,42.6180056,0.8518412,,Q17483769,ca:Tumeneia,108
node,575756206,Tuc del Port de Caldes,,,,2783.0,42.6161557,0.8945431,247,Q17483766,ca:Tuc deth Pòrt,185
node,2484316067,,,,,2783,42.6274132,1.7382803,,,,47
node,6635817021,Mounherran,,,,2783,42.728604,0.070487,,,,144
node,6695519232,,,,,2783,42.6348115,0.4751002,,,,52
node,9734557116,,,,,2783.0,42.6537213,1.3963002,,,,35
node,5107774480,Cim Baix de les Arques,,,,2782.4,42.4093077,2.1878762,,Q11913778,ca:Cim Baix de les Arques,12
node,3018129657,Bony de les Picardes,,,,2782.3,42.5310417,1.0566292,,Q11909666,ca:Bony de les Picardes,84
node,4339921116,Pic de Flamisella,,,,2782.1,42.7127368,1.2614019,,Q17482003,ca:Pic de Flamisella,125
node,1250033126,Pic Guadiesso,,,,2782,42.5792963,0.6626375,,,,47
node,5077510823,Pic del Racó Gros,,,,2781.7,42.4322132,2.1871239,215,Q31632368,,138
node,13664634253,,,,,2781.7,42.5700229,0.9128925,,,,61
node,4985232336,Petit Montardo,,,,2781.4,42.6313163,0.876773,,Q17482718,ca:Montardo Petit,31
node,1401588780,,,,,2781.3,42.7121776,1.2615789,,,,12
node,577086315,Muntanyó,,,,2781.2,42.5309171,1.0448225,,Q11937996,ca:Muntanyó,53
node,1959592528,Pic d'Escobes,,,,2781,42.6092126,1.7356452,,Q18005600,ca:Pic d'Escobes,240
node,2195405231,Pic Rouge de Pailla,,,,2781,42.7109187,0.0266682,,,,169
node,3630850284,Pic L'Alig,,,,2781,42.5072922,1.6753431,,,,44
node,3706941320,Pic de Comaltes,,,,2781.0,42.5707341,0.8735266,,Q11941579,ca:Pics de Comaltes,44
node,5489622676,Mont Arrouy,,,,2781,42.8367833,0.0738054,272,,,286
node,7554168570,Zuca Punchada,,,,2781,42.6477771,0.0843329,,,,105
node,9311761794,,,,,2781,42.6344096,0.4752986,,,,55
node,13030672872,Guins dels Taps,,,,2781,42.682422,1.3882251,,,,42
node,9734557381,,,,,2780.8,42.6644688,1.3766002,,,,8
node,3708031853,,,,,2780.6,42.5956903,0.9635884,,,,45
node,1250040037,Forcau Bajo,,,Forcau Bajo,2780,42.6304755,0.4459497,,,,88
node,2283989082,Tuc de Contesa,,,,2779.9,42.6155123,0.7885942,,Q11953282,ca:Tuc de Contesa (Vielha e Mijaran),106
node,3732195304,Pic,,,,2779.7,42.5153795,1.7194768,,Q115628612,,37
node,1250039108,Tobacor,,,Tobacor,2779,42.6556506,-0.0135111,325,,,326
node,4210898126,Pala de Ip,,,,2779,42.7379277,-0.4532861,268,Q13049765,,258
node,6735198562,Point Sud des Agudes,,,,2779,42.83811,-0.0712224,,,,0
node,5029336351,,,,,2778.9,42.6009873,1.3680607,,,,27
node,5013648779,,,,,2778.6,42.5418836,0.9952444,,,,52
node,3421804430,la Torre de Cabús,,,,2778.2,42.5274235,1.4071679,,Q11930866,ca:La Torre de Cabús,112
node,5859199520,Pui de la Bonaigua,,,,2778.1,42.6271939,1.019478,214,Q17481391,ca:Pui de la Bonaigua,212
node,623866331,Tuca de Posolobino,,,Tuca de Posolobino,2778,42.5655116,0.5986628,,,ca:Tuca de Puçolobino,29
node,2295056710,Pic de Mil-Menut,,,,2778,42.6302998,1.6371384,,,,148
node,6880683562,,,,,2778,42.6412607,0.4475239,,,,56
node,12376685025,pic de Lia,,,,2778,42.7174207,0.2601426,,,,83
node,575756235,Tuc de Lluçà,,,,2777.7,42.6102964,0.9011656,,Q11953288,ca:Tuc de Lhuçà,115
node,576706397,,,,,2777.3,42.6624923,1.3691699,,,,48
node,13072083489,,,,,2777.1,42.6718895,1.3787264,,,,46
node,4107214660,,,,,2777,42.6021504,1.5801006,,,,26
node,11591051846,Tuca occidental de Ixeia,,,,2777,42.6330426,0.5027991,,,,70
node,4341077464,,,,,2776.9,42.7064952,1.1720432,,,,19
node,4881823164,el Castell de Rus,,,,2776.7,42.4916407,0.9240442,,Q11918229,ca:El Castell de Rus,82
node,4909236448,Pic de l'Estanyet,,,,2776.4,42.4971976,0.9196602,,Q17481958,ca:Pic de l'Estanyet,
node,4359162163,,,,,2776.3,42.5264024,1.0219769,,,,31
node,7552075770,,,,,2776,42.6973807,0.0418891,,,,34
node,9311761795,,,,,2776,42.634618,0.4752371,,,,46
node,2204991894,Pic de Serra-seca,,,,2775.5,42.507357,1.7077969,,Q21330410,,110
node,4339921121,Pic de la Lleia,,,,2775.5,42.7147025,1.2607039,,Q17482359,ca:Pic de la Lleia,26
node,2185577620,,,,,2775.2,42.5833438,1.4266051,,,,11
node,4341202640,,,,,2775.2,42.5023211,1.0281412,,,,11
node,6635835937,Soum des Tours,,,,2775,42.7698723,0.1018227,,,,6
node,9288549597,,,,,2775,42.5845318,1.9397017,,,,17
node,3640377181,,,,,2774,42.584833,1.7259356,,,,18
node,5948133895,Serre Plénière,,,,2774,42.6553771,1.4199614,,,,40
node,6185825986,Roc del Boc,,,,2774,42.4460981,2.1550389,,,,158
node,13664634254,,,,,2774.0,42.5708585,0.912053,,,,45
node,2204991901,Pic d’Engaït o de la Menera,,,,2773.9,42.5133765,1.712757,,,,99
node,5859152450,,,,,2773.9,42.6064173,0.9776828,,,,77
node,3732195305,Pic de la Portella dels Colells,,,,2773.2,42.5047674,1.7040079,,,,40
node,1304111424,La Mugueta,,,,2773.0,42.4759223,1.6681533,,,,23
node,4909236463,,,,,2772.9,42.5701473,0.8768976,,,,22
node,5013458285,,,,,2772.7,42.547209,0.9652135,,,,37
node,640369802,Puig del Coll d'Eina,,,,2772.2,42.4184756,2.1465039,,Q17483133,ca:Puig del Coll d'Eina,18
node,6555880961,,,,,2772,42.5802345,0.6611628,,,,15
node,6871769033,,,,,2772,42.6820041,0.5330758,,,,78
node,3010297594,Tossal de la Montanyeta,,,,2771.4,42.5557907,0.9676038,,Q17482714,ca:Tossal de la Montanyeta,115
node,732266075,Pic des Tourettes,,,,2771,42.889453,-0.3152519,302,,,341
node,13064228636,Punta de la Puertas,,,,2771,42.6961939,0.1216352,,,,37
node,9732090158,,,,,2770.9,42.6025711,0.99278,,,,70
node,4148503407,,,,,2770.4,42.5698771,0.8751908,,,,26
node,4341202642,,,,,2769.1,42.5025052,1.028565,,,,6
node,1250024673,Pico Anónimo,,,Pico Anónimo,2769,42.6835309,-0.0280499,,,,27
node,4909236461,,,,,2768.0,42.5703301,0.8743264,,,,15
node,6533460738,,,,,2768,42.6232555,0.6176699,,,,74
node,6869066212,,,,,2768,42.6884307,0.4690462,,,,84
node,1091885671,Pic de Cornave,,,,2767.7,42.7903927,1.0074129,,,,29
node,5859152453,,,,,2767.2,42.6057559,0.972686,,,,121
node,4210943020,Peña Retona,,,Peña Retona,2767,42.6989583,-0.4155242,277,Q23992954,sv:Peña Retona,625
node,5076681761,,,,,2766.8,42.5207385,1.3927913,,,,92
node,5029336354,,,,,2766.7,42.6019055,1.3658431,,,,17
node,3010400596,Agulles de Monestero,,,,2766.1,42.5565242,0.9904418,,Q11904383,ca:Agulles de Monestero,56
node,4985263139,,,,,2766.1,42.6097381,0.8983044,,,,40
node,734787860,Tuque Blanque,,,,2766,42.7958638,-0.1649035,,,,69
node,1250034901,Pico de Escuzana,,,Pico de Escuzana,2766,42.6815804,-0.0798076,,,,59
node,26864260,Pic de Moredo,,,,2765.9,42.7189355,1.0499162,694,Q17482782,ca:Pic de Moredo,695
node,4148503431,,,,,2765.4,42.5711171,0.8713968,,,,25
node,9876444414,,,,,2765.1,42.65607,1.356216,,,,36
node,494178693,Pic Falisse,,,,2765,42.8049957,-0.2284846,,,,109
node,3686735591,Pic de Pedres Blanques,,,,2765,42.6500702,1.3731303,,Q11941494,ca:Pic de Pedres Blanques,170
node,8895595506,Puig de la Portella Gran,,,,2765,42.6215487,1.9765094,,,,155
node,8963266532,,,,,2764.6,42.7181237,1.0509086,,,,22
node,494178545,Grand Pic de Péterneille,,,,2764,42.7980377,-0.208565,,,,114
node,1241879944,Montidiego,,,,2764,42.6619926,0.4793467,,,,133
node,3769039007,Tuca de Sillerets,,,,2764,42.6203418,0.438233,,,,81
node,5826716480,,,,,2764.0,42.5934195,0.9511722,,,,28
node,6880683539,,,,,2764,42.6333036,0.4364025,,,,18
node,6880683541,,,,,2764,42.6322332,0.4336939,,,,11
node,9264397951,,,,,2764,42.6208939,0.4383294,,,,59
node,12487181616,Pico de Labaza Oriental,,,,2764,42.7635711,-0.2017579,,,,67
node,3706616072,Tossal d'Escobedieso,,,,2763.9,42.593833,0.7899595,,Q11952663,ca:Tossal d'Escobedieso,158
node,733993045,Pic de la Badète,,,,2763,42.7678675,-0.0853711,,,,88
node,4347710763,Pic dels Tres Estanys,,,,2763,42.6852969,1.1906368,,,,94
node,7252018231,,,,,2763,42.6415898,0.6879333,,,,29
node,7775691906,Puig de la Cometa d'Espagne,,Puig de la Cometa d'Espagne,,2763,42.6173465,1.959251,,,,180
node,9732108934,,,,,2763.0,42.5945901,1.0211863,,,,142
node,3421804419,Bassiets,,,,2762.9,42.5265962,1.3944536,,Q11908681,ca:Bassiets (Alins),88
node,1250026352,Pico de Barrosa,,,,2762,42.7178662,0.1701249,203,,,230
node,6764370096,,,,,2762,42.6613153,0.4689387,,,,52
node,6790517468,,,,,2762,42.6949585,0.4518403,,,,103
node,6871769034,,,,,2762,42.6817274,0.5334464,,,,41
node,581803081,Telera,,,Telera,2761.80,42.6911117,-0.3739644,617,Q3572228,,290
node,45195626,Pic de Lasaugède ou de Bonrepos,,Pic de Lasaugède ou de Bonrepos,,2761.5,42.7178504,1.2671817,,Q11953286,ca:Tuc de Lasauguèda,76
node,3708102411,Tuqueta de Saboredo,,,,2761.4,42.6110535,0.9849337,,,,36
node,6712486100,,,,,2761,42.6618493,0.478766,,,,18
node,9732090159,,,,,2761.0,42.6012823,0.9924893,,,,114
node,9734557115,,,,,2760.8,42.6549215,1.3990933,,,,14
node,4909236437,,,,,2760.5,42.5473799,1.0169318,,,,38
node,9734518956,,,,,2760.4,42.6590599,1.3820188,,,,13
node,734787878,Pic des Oulettes,,,,2760,42.7870756,-0.1555566,,,,150
node,1241928806,Pico Baciás,,,Pico Baciás,2760,42.7524487,-0.1966283,,,,195
node,3671517544,Pics de la Portaneille,,Pics de la Portaneille,,2760,42.6191537,1.6642931,,Q21329386,,194
node,6735198561,Pourtère de l'Estagnol,,,,2760,42.840268,-0.0579716,,,,75
node,9859119410,,,,,2760,42.5132527,1.7117601,,,,14
node,2413695148,Pic Arraillé,,,,2759,42.7936891,-0.1290974,,,,152
node,3180480411,Pic Sarroa,,,,2759,42.891463,-0.3153645,,,,129
node,9997119501,,,,,2758.5,42.6490506,1.3718681,,,,22
node,6533447439,,,,,2758,42.6269066,0.6380216,,,,11
node,6636720697,Pic du lac noir,,,,2758,42.8061983,-0.0592813,,,,83
node,9811010503,Soum de Bassia,,,,2758,42.8429371,-0.2110085,,,,165
node,277377889,Casamanya Nord,,,,2757,42.5873712,1.570299,207,,,223
node,6789111234,,,,,2757,42.6676203,0.4547838,,,,24
node,7554168572,Zuca Roncha,,,,2757,42.6453122,0.0899421,,,,96
node,7799210850,Aguja del Sen Occidental,,,Aguja del Sen Occidental,2757,42.6256426,0.3935117,,,,43
node,576091607,Pic de la Gallina,,,,2756.5,42.7011567,1.176148,,Q11941534,ca:Pic de la Gallina,74
node,4909152261,,,,,2756.3,42.5133512,0.9200511,,,,55
node,1250037622,Pic de la Canau,,,,2756,42.7087117,0.0714277,,,,48
node,3461102728,,,,,2756,42.5285775,1.0425952,,,,34
node,6534681665,Tuca de la Renclusa,,,,2756,42.6583314,0.6514502,,,,26
node,6540399650,,,,,2756,42.6093853,0.6837639,,,,6
node,4909152749,Bony Blanc,,,,2755.7,42.5328051,0.8963174,,Q11909643,ca:Bony Blanc,150
node,9876444413,,,,,2755.3,42.6567542,1.3599718,,,,26
node,2787357958,Penyes de Salado,,,,2755.2,42.5140936,0.949172,,,,20
node,592395956,Peña Sabocos,,,,2755,42.6792239,-0.2519131,213,Q11940819,,241
node,623866330,Tuca de Roques Trencades,,,,2755,42.5844706,0.6100641,,,,73
node,6555880963,,,,,2755,42.5808814,0.6679928,,,,21
node,9951076760,Pouey Laou,,,,2755,42.8113994,-0.1698677,,,,57
node,575756223,Pic de Travessani,,,,2754.7,42.6118521,0.8914378,,Q11941511,ca:Pic de Travessani,92
node,4881929615,,,,,2754.6,42.5198168,0.9275174,,,,48
node,12046210450,Pica de Cerví,,,,2754.1,42.4529537,0.8792394,,Q11941568,ca:Pica de Cerví,321
node,576091616,Pic Major de la Gallina,,,,2754,42.6989204,1.1749123,,,,106
node,6695660101,Malh de Bolard,,,,2753.2,42.8058071,0.9604458,,Q109044054,fr:Mail de Bulard,225
node,2008300324,Pic de Perafita,,,,2753,42.4591185,1.5855224,,Q11952788,ca:Tossal de la Truita,181
node,6554173303,Pico del Turmo,,,Pico del Turmo,2753,42.625182,0.3819495,,,,146
node,7554333635,Punta Narronal,,,,2753,42.6778596,-0.0893728,,,,85
node,4518704062,Cim de Costa Blava,,,,2752.5,42.6898019,1.1964035,,,,36
node,4000702642,,,,,2752,42.5019094,1.6296345,,,,24
node,5568155815,Punta de las Neiss,,,Punta de las Neiss,2752,42.5083242,0.312983,,,,45
node,5826716481,,,,,2752.0,42.5930239,0.9502201,,,,24
node,6712486096,,,,,2752,42.6563205,0.4742782,,,,29
node,12407611210,Pic de Dalt de Coma Mitjana,,,,2752.0,42.4342416,2.217617,,,,72
node,590706383,Punta Escarra,,,Punta Escarra,2751,42.7324081,-0.4386589,,,,211
node,2997266127,Monte Arruebo,,,,2751,42.6534933,-0.0222085,,,,50
node,5568219499,,,,,2751,42.5248278,0.3282155,,,,44
node,6712486097,,,,,2751,42.6580154,0.4736126,,,,31
node,575756249,Pic de la Tallada Llarga,,,,2750.6,42.6078254,0.9087996,,Q11941546,ca:Pic de la Tallada Llarga,110
node,1990953683,Pic Roi,,,,2750.4,42.518142,0.9150232,,Q17483370,ca:Pic Roi,102
node,5013744636,,,,,2750.2,42.5532152,1.0224548,,,,51
node,7040808985,Cambre d'Aze,,,,2750,42.4520719,2.1320081,,,,103
node,1102581003,Tossau de Mar,,,,2749.9,42.6303004,0.8289666,245,Q37853329,,255
node,7812591254,,,,,2749.9,42.6303936,0.8292237,,,,
node,2188365881,Pic de les Fonts,,,,2749,42.6011455,1.4781884,,Q21329688,,104
node,3689773992,Modalons d'en Sobirana,,,,2749,42.4246082,2.2309076,,,,2
node,4059394625,,,,,2749,42.5806486,1.7108928,,,,101
node,6186107417,Pico Cibollés,,,Pico Cibollés,2749,42.5409749,0.5720618,477,,,477
node,7180671327,Pic d'Estauas / Tuca de Gorgutes,,,,2749,42.7011177,0.5933231,,,,117
node,12461116149,Garmo de Albas,,,,2749,42.7792638,-0.2722959,,,,39
node,45161413,Pic de Noè,,,,2748,42.6117099,1.7384087,,Q21330042,,53
node,1249961523,Cim de l'Ortigar,,,,2748,42.3859335,2.1308434,,,,50
node,4210934245,Puerto Rico,,,,2748,42.6986436,-0.4084806,,Q23993464,,151
node,6880683538,,,,,2748,42.6355796,0.4372337,,,,35
node,7554264379,,,,,2748,42.6836657,-0.0555935,,,,17
node,3708178405,Agulles de Bassiero,,,,2747.6,42.6019047,0.9977658,,Q11904380,ca:Agulles de Bassiero,101
node,4341202633,,,,,2747.2,42.5007658,1.025801,,,,25
node,4059394626,,,,,2747,42.5822404,1.7189743,,,,77
node,7799235871,Buixin Oriental,,,,2747,42.6636037,0.2671069,,,,50
node,3707866574,Cap de les Pales del Planell Gran,,,,2746.5,42.5651397,0.9119119,,Q11912133,ca:Cap de les Pales del Planell Gran,90
node,277377767,Pic Oest de Casamanya,,,,2746,42.5845922,1.5654754,,,,66
node,1250031987,Pico de Salarons o Gallinero,,,,2746,42.6695346,-0.0588105,236,,,232
node,3732195306,Pic dels Colells,,,,2746,42.5062453,1.691999,,Q115650732,,44
node,3907021097,Pic de l'Estany Mort,,,,2746,42.6266399,1.6285559,,Q30912941,,41
node,7552147034,,,,,2746,42.7093492,0.0260511,,,,73
node,7252018232,,,,,2745,42.6427661,0.6884663,,,,36
node,5013648776,,,,,2744.9,42.5295374,0.9930829,,,,47
node,13072083488,,,,,2744.8,42.6715422,1.3789216,,,,19
node,5859152456,Punta Sageta,,,,2744.3,42.6058888,0.9751774,,,,85
node,1203775378,Pic de l'Aspre,,,,2744,42.6713754,1.5159766,336,,,338
node,9934068588,Pic del Port de Fontnegra,,,,2744,42.5178383,1.7332475,,,,82
node,579893649,Puig del Coll de Finestrelles,,,,2743,42.4112637,2.1278733,,Q17483134,ca:Puig del Coll de Finestrelles,22
node,1681866094,Pic Milhas,,,,2743,42.8870463,-0.3170262,,,,99
node,2295056707,Pic du Sal,,,,2743,42.6329699,1.5941673,,,,99
node,6695519230,,,,,2743,42.6336831,0.4752321,,,,58
node,7180671332,Pic d'Estauas Sur,,,,2743,42.6998839,0.5921157,,,,98
node,5029336342,Pic de Vallpeguera,,,,2742.9,42.5927379,1.4215304,,Q114659277,ca:Pic de Vallpeguera,35
node,2787413726,Pic Fosser,,,,2742.7,42.5194064,0.9688174,,Q11941431,ca:Pic Fosser,114
node,3706657898,,,,,2742.4,42.5882352,0.8383185,,,,75
node,7799235872,Buixin Occidental,,,,2742,42.6640524,0.2647812,,,,52
node,9732108935,,,,,2741.5,42.5936401,1.018612,,,,58
node,1060153582,,,,,2741,42.7003854,0.5927976,,,,50
node,2295058527,Pic de Thoumasset,,,,2741,42.653962,1.582887,,,,217
node,2354540044,,,,,2741.0,42.6923681,1.3643723,,,,164
node,7554312203,,,,,2741,42.6790468,-0.0844553,,,,51
node,12379467020,Pic de Badet d'Aubiste,,,,2741,42.8312773,-0.0521428,,,,94
node,10618394168,Peyregnets de Costalade,,,,2740,42.837269,-0.2276445,,,,123
node,3012404818,Tuc de Moró,,,,2739.1,42.4819288,0.9052473,,Q11953294,ca:Tuc de Moró,132
node,1249951736,Cim de la Coma del Clot,,,,2739,42.3966039,2.1852286,,Q5150470,ca:Cim de la Coma del Clot,80
node,7528587429,Tossau de Mar Petit,,,,2739.0,42.6298161,0.8278468,,,,44
node,9732108936,,,,,2739.0,42.5950759,1.0235836,,,,40
node,3708102409,Puis de Gerber,,,,2738.3,42.6179509,0.9828981,,Q11943869,ca:Puis de Gerber,155
node,3180473543,Pic d'Estibère,,,,2738,42.8965546,-0.3161812,,,,119
node,3807551826,Pic d'Aulon,,,,2738,42.8745662,0.2443716,223,,,219
node,6712486092,,,,,2738,42.6560519,0.4829767,,,,52
node,7192546140,lo Vedo,,,,2737.8,42.6943803,1.1921056,,,,53
node,626949736,,,,,2737,42.6096858,0.6570919,,,,
node,2459532955,Petit Arbizon,,,,2737,42.8742534,0.2803688,,,,50
node,6540399653,,,,,2737,42.6094042,0.6605579,,,,76
node,6712486088,,,,,2737,42.6570828,0.4852166,,,,51
node,7552147035,Hourquette de Pailla,,,,2737,42.7078021,0.0272682,,,,96
node,11646993809,Pic de Font Freda,,,,2737,42.5360792,1.7950886,,Q49753097,ca:Pic de Fontfreda,69
node,4985263142,,,,,2736.4,42.6116498,0.8952289,,,,29
node,576798430,La Carbassa,,,,2736,42.4530092,1.7269651,,Q6461537,ca:La Carbassa,80
node,1060153622,Pic de Sauvegarde,,Pic de Sauvegarde,,2736,42.6949418,0.6309305,371,Q3382388,,384
node,3181154082,Picos de Labaza,,,,2736,42.7624992,-0.2028951,,,,39
node,6792019830,L'Echine d'Ane,,L'Echine d'Ane,,2736,42.7927491,1.08346,,,,102
node,4040006736,,,,,2735.6,42.5265142,0.9415416,,,,60
node,4339922029,,,,,2735.4,42.7159942,1.2669565,,,,33
node,1250016849,Punta Alta,,,,2735,42.5369624,0.3450226,,,,134
node,7554312199,,,,,2735,42.6838054,-0.0766766,,,,27
node,3010692531,Pic del Portarró,,,,2734.3,42.5837351,0.9701402,,Q11941554,ca:Pic del Portarró,162
node,4339921117,Pic de Guerossos,,,,2733.8,42.7029589,1.2818244,,Q11941469,ca:Pic de Guerossos,144
node,45161368,Pic de Ransol,,,,2733,42.6263668,1.6531544,,Q30912943,,88
node,6551687781,,,,,2733,42.5992788,0.7096986,,,,89
node,9811382364,Pic de Badescure,,,,2733,42.8629301,-0.2005,,,,95
node,6695660103,Tuc der Òme,,,,2732.1,42.7888631,0.9351347,,Q11953321,ca:Tuc der Òme,188
node,1103938426,Pic de Cabayrou ou de Cabagnau,,Pic de Cabayrou ou de Cabagnau,,2732,42.6308896,1.4680186,,,,115
node,1250022680,Tuca del Chinebro,,,,2732,42.6329853,0.4950462,,,,111
node,4295672821,,,,,2732,42.6470477,1.4019229,,,,56
node,6122384127,Soum Des Agudes,,,,2732,42.8484438,-0.0741641,,,,145
node,12407611211,Pic de Coma Mitjana,,,,2732,42.4419074,2.20953,,,,109
node,13072083491,,,,,2731.8,42.6730098,1.3779935,,,,73
node,3014258690,Tossalet de la Coma,,,,2731.6,42.496435,1.0227745,,Q11952905,ca:Tossalet de la Coma (Sort),39
node,2787868536,Tuc de la Mina,,,,2731.5,42.4935829,0.9336635,,Q11953315,ca:Tuc de la Mina,58
node,1091885617,Tuc de Parros,,,,2731.3,42.76778,0.9330471,239,Q17482924,ca:Tuc de Parros,246
node,4341077477,,,,,2731.3,42.7183364,1.2713126,,,,55
node,277377892,Casamanya Mig,,,,2731,42.5858229,1.5691746,,,,46
node,6197624321,Puig dels Tres Vents,,,,2731,42.4921111,2.4686112,222,Q7838888,ca:Puig_de_Tres_Vents,251
node,6712486090,,,,,2731,42.656999,0.4874444,,,,25
node,652132534,Pico de Brazato,,,,2730,42.740739,-0.1998678,,,,186
node,734648030,Pic de la Haille,,,,2730,42.7550036,0.3296195,,,,157
node,2295056708,Pic de la Coume d'Enfer,,,,2730,42.6248785,1.6826526,,Q21332188,,123
node,5013458278,,,,,2729.1,42.5303064,0.9978429,,,,37
node,1250020418,,,,,2729,42.609341,0.3949984,,,,163
node,9292087341,,,,,2729,42.7067935,0.0720674,,,,54
node,3707866587,Tuc de Pòdo,,,,2728.8,42.5978649,0.9359602,,Q11953296,ca:Tuc de Pòdo,65
node,6904713005,La Montañeta,,,,2728,42.6079478,0.3943896,,,,21
node,12376685028,pic d'Escalet,,,,2728,42.7371212,0.2673987,,,,107
node,576676023,,,,,2727.1,42.6085264,0.9920454,,,,25
node,652132560,Pico Marcadau,,Pointe de la Muga,Pico Marcadau,2727,42.7982476,-0.2173874,,,,138
node,1677328891,Puig de Fontnegra,,,,2727,42.4031611,2.1817896,,Q7259030,ca:Puig de Fontnegra,63
node,4210943021,Punta Blanca,,,,2727,42.6951306,-0.4177455,,,,59
node,576091623,Pic Inferior de la Gallina,,,,2726,42.6978957,1.175074,,,,50
node,5047722949,Pic Henri Pont,,,,2726,42.8023527,-0.1219753,,,,56
node,9138428585,Pic de Bouneu,,,,2726,42.7171091,0.0901904,,,,49
node,4341077462,,,,,2725.8,42.7030537,1.1748023,,,,12
node,4518562837,,,,,2725.7,42.6952959,1.1923134,,,,41
node,4909236439,,,,,2725.5,42.5637571,1.0188168,,,,150
node,1250038185,Cotielleta,,,,2725,42.5059509,0.3272662,,,,74
node,6695499361,Pico Este de Perramó,,,,2725,42.6319828,0.4930537,,,,32
node,4909152748,Bony Negre,,,,2724.1,42.5285956,0.8981361,,Q11909642,ca:Bony Negre,101
node,623866321,Tozal Del Portet,,,,2724,42.5435185,0.5824371,,,,42
node,652132471,Collaradeta,,,,2724,42.7065826,-0.4587865,,,,165
node,733904691,Moun Né,,,,2724,42.8935906,-0.1673211,468,Q3325945,,475
node,1249957645,Cim de la Costa de Montmajor,,,,2724,42.4805382,1.7560057,,,,18
node,1250040466,Tuca Gargallosa,,,,2724,42.6799446,0.5175838,,,,102
node,1664640509,Pic des Quatre Termes,,,,2724,42.8869128,0.1753833,259,,,248
node,3019919831,Isardères,,,,2724,42.8087008,-0.1555739,,,,50
node,6887996040,Pic de la Montagnette,,,,2724,42.7121948,0.4019506,,,,0
node,8479233315,Cap de Llosada,,,,2724,42.5789816,1.8650645,,,,35
node,3012404815,Tossal de la Mina,,,,2723.8,42.4832555,0.9119112,,Q17482592,ca:Tossal de la Mina,69
node,1990953692,Tuc des Costes,,,,2723.3,42.5199675,0.8969061,,Q11953330,ca:Tuc des Costes,69
node,652132540,Pico de la Forqueta,,,Pico de la Forqueta,2723,42.8032064,-0.2898502,,,,171
node,3473038219,Roc Colom,,,,2723,42.4943353,1.7572999,,,,99
node,3722034150,Pico de Puerto Viejo,,,Pico de Puerto Viejo,2723,42.7280095,0.1622576,,,,74
node,3893252098,Pic Blanc,,,,2723,42.5220301,1.720571,,Q2092013,,52
node,6551687780,,,,,2723,42.5993028,0.7086254,,,,12
node,7554312197,,,,,2723,42.6868185,-0.0753779,,,,32
node,9102933098,Pic des Cristayets,,,,2723,42.8398218,-0.2670902,,,,140
node,5859152458,,,,,2722.6,42.6042943,0.971186,,,,46
node,579972546,Pic del Sirvent,,,,2722.5,42.4647462,1.6058163,,Q17483009,es:Pico del Sirvent,44
node,3954667232,Pic del Feixar,,,,2722,42.4717442,1.6344773,,Q21329618,,34
node,6735197487,Soum de Bat Houradade,,,,2722,42.8541174,-0.0755169,,,,121
node,6904713004,,,,,2722,42.6077193,0.39516,,,,20
node,4210916234,Peña Nevera,,,,2721,42.7086101,-0.4502568,,,,139
node,6203277509,Pic de Bastan d’Aulon,,,,2721,42.8623702,0.217728,211,,,227
node,6904713006,,,,,2721,42.6085741,0.3956085,,,,16
node,7188511960,,,,,2721.0,42.78813,1.014964,,,,38
node,7552040339,,,,,2721,42.6971494,0.0311886,,,,7
node,7552040340,,,,,2721,42.6960625,0.0303875,,,,10
node,734787853,Les Pics Jumeaux,,,,2720,42.7958216,-0.1989811,,,,60
node,1304130776,Tuc de Bonabé,,,,2720,42.7132755,1.0380088,,Q11953273,ca:Tuc de Bonabé,130
node,1792477160,Pic Arrious,,,,2720,42.8541977,-0.3511126,,,,102
node,5047722948,Grand Pic des Paloumères,,,,2720,42.8193562,-0.1234293,,,,121
node,9811010504,pic du Pourtet,,,,2720,42.8470224,-0.2097076,,,,99
node,4341077478,,,,,2719.3,42.7184009,1.2733246,,,,17
node,4097100516,,,,,2719,42.6337022,1.5851587,,,,54
node,5657080984,,,,,2719,42.5320051,0.3189465,,,,166
node,6551687767,,,,,2719,42.6070852,0.6892095,,,,17
node,6764370100,,,,,2719,42.6584875,0.4655381,,,,20
node,6880618015,,,,,2719,42.6905349,0.4565813,,,,51
node,7052367073,,,,,2719,42.6593066,0.2749021,,,,86
node,9315984516,,,,,2719,42.6634988,0.4796811,,,,23
node,12376576680,pic de l Houque,,,,2719,42.722108,0.4023371,,,,105
node,1250017453,Agulla del Chinebro,,,Agulla del Chinebro,2718,42.632247,0.4812017,,,,62
node,5374902053,Punta el Garién,,,,2718,42.6975485,0.058315,,,,269
node,3750584386,Cap de Broate,,,,2717.7,42.689379,1.3610468,,,,36
node,652132542,Pico de Campo Plano,,,Pico de Campo Plano,2717,42.805202,-0.2631784,,,,135
node,5013744641,,,,,2716.5,42.561377,1.0192887,,,,118
node,732425776,Pic de Soques,,,,2716,42.8211427,-0.3626234,272,Q31629693,,268
node,1241944469,Peña Puerto Rico,,,,2716,42.6981428,-0.4084012,,,,36
node,1250038823,Pic de Gabiet,,,,2716,42.721251,-0.0874519,374,Q3382366,fr:Pic de Gabiet,386
node,1746698399,Lenquo de Capo,,,,2716,42.777699,0.1132896,,Q3229509,,47
node,4081192889,Pic de Meners,,,,2716,42.6259739,1.6181319,,,,42
node,9127637461,,,,,2715.6,42.5341646,1.3930848,,,,90
node,2776949611,Pic de Bastan,,,,2715,42.8659574,0.2007309,206,Q3382348,fr:Pic de Bastan,214
node,6551687764,,,,,2715,42.6050663,0.6871553,,,,10
node,6687122360,,,,,2715,42.6355242,0.5145403,,,,15
node,7552075762,,,,,2715,42.6976993,0.057301,,,,250
node,9116326150,Pointe d’Aragon,,,,2715,42.8414444,-0.4354574,,,,131
node,12071991746,Pic de la Pale Clauère,,,,2715,42.7878017,1.0767186,,,,160
node,12980858142,Pic des Pedrons,,,,2715,42.5314569,1.7522038,,,,165
node,1304128778,Pic de Serre-Haute,,Pic de Serre-Haute,,2714.8,42.813222,0.8853619,301,,,309
node,577086182,les Agudes,,,,2714.5,42.5985089,1.0275935,,,,90
node,491359024,Puig del Roc Negre,,,,2714,42.50014,2.471185,,Q24019060,ca:Puig del Roc Negre,136
node,1400878112,Pic de Bocou,,,,2714,42.7426788,0.3474639,,,,75
node,2898954967,Pic dels Pedrons,,,,2714,42.5325227,1.7519326,,Q63870463,ca:Pic dels Pedrons,45
node,3808306623,Pic du Contadé,,,,2714,42.8850475,0.1754178,,,,89
node,6551687766,,,,,2714,42.6063016,0.6884904,,,,9
node,6551687771,,,,,2714,42.605156,0.6996651,,,,68
node,1250027511,Tuqueta Blanca de Paderna,,,,2713,42.6692069,0.6196118,,,,92
node,1250036416,Tozal de las Lleras de Cecilia,,,Tozal de las Lleras de Cecilia,2713,42.6021908,0.4199066,,,,181
node,2159938450,Torreneules,,,,2713,42.3908856,2.1962094,,Q7827019,ca:Torreneules,154
node,6551687765,,,,,2713,42.6055544,0.6880006,,,,8
node,7552040341,,,,,2713,42.6951469,0.0280642,,,,9
node,2459532954,Pic de Montfaucon,,,,2712,42.8799306,0.258118,,,,107
node,4243948074,,,,,2712,42.6255106,0.3908846,,,,47
node,12229404084,Pic de Prada,,,,2712,42.8693012,0.2148528,,,,78
node,12376744239,Campana de Larrens,,,,2712,42.8394229,0.0931333,,,,80
node,4341202600,,,,,2711.9,42.4991251,1.0253059,,,,
node,5859152454,,,,,2711.9,42.6047252,0.9715856,,,,22
node,4518562832,,,,,2711.6,42.7047312,1.1736132,,,,19
node,4341202592,,,,,2711.5,42.498575,1.0248569,,,,26
node,3018407684,Pic de Sudorn,,,,2711.0,42.5350269,1.0485497,,Q28711227,ca:Pic de Sudorn,103
node,5047737614,Pic de l'Estibet d'Estom,,,,2711,42.8002245,-0.1205037,,,,58
node,4909152586,,,,,2710.4,42.5192005,0.8991543,,,,16
node,652132553,Peña Forato,,,Peña Forato,2710,42.6791707,-0.2266413,,,,169
node,801342757,Soum de Marraut,,,,2710,42.831482,0.0585134,244,,,256
node,6687122361,,,,,2710,42.6365612,0.5116941,,,,44
node,8247362916,Tuca Pomero,,,Tuca Pomero,2710,42.6586389,0.6955809,263,Q11934710,ca:Malh dera Artiga,269
node,3010692529,Cap de Crabes,,,,2709.8,42.5880726,0.9656028,,Q17481810,ca:Cap de Crabes,88
node,12391466042,Pic de Rouche,,,,2709,42.7980433,0.9173043,,,,27
node,3180630121,Pic Arrouy,,,,2708,42.8946439,-0.2997562,,,,166
node,4347710759,Pic de Calberante,,,,2708,42.6902465,1.1821517,,,,40
node,5568212405,Punta la Picollosa,,,,2708,42.5371458,0.3412282,,,,44
node,6904713010,Pico Barbaricia,,,Pico Barbaricia,2708,42.6136507,0.3936071,,,,47
node,6912363618,,,,,2708,42.6272302,0.3965424,,,,19
node,7052367075,,,,,2708,42.6598867,0.2730581,,,,65
node,4341202596,,,,,2707.4,42.4987854,1.025178,,,,11
node,13072083492,,,,,2707.1,42.6736348,1.3774041,,,,62
node,2851793146,Le Picot,,,,2707,42.6761101,1.4820629,,,,162
node,4210936254,Pabellón,,,,2707,42.6951447,-0.3996779,,,,84
node,4315547276,Sommet de Batcrabère,,,,2707,42.8438429,-0.3087296,,,,116
node,7554333637,,,,,2707,42.6757945,-0.0908211,,,,35
node,9869662742,,,,,2706.3,42.7644996,0.9278029,,,,52
node,6899534085,Montagne de Cauarère,,,,2706,42.7080034,0.3183559,,,,29
node,8734634634,Pic d’Esquine d’Aze,,,,2706,42.6284159,1.9020909,,,,238
node,1502698212,Pic de Brougat,,Pic de Brougat,,2705.9,42.6947176,1.3649774,,Q11941459,ca:Pic de Broate,47
node,4909152279,,,,,2705.6,42.5147401,0.916799,,,,54
node,4985263141,,,,,2705.4,42.6112589,0.8960534,,,,27
node,1250027326,Peña de Otal,,,,2705,42.675902,-0.1608112,219,,,261
node,3887551587,Pic Baix del Cubil,,,,2705,42.5302335,1.6783073,,Q21329472,,94
node,4210919355,El Fraile,,,El Fraile,2705,42.7097986,-0.4563079,,,,37
node,4315548026,Pic de la Barane,,Pic de la Barane,,2705,42.8415119,-0.3030431,,,,99
node,6904713008,,,,,2705,42.6113668,0.3947461,,,,19
node,7188511959,,,,,2704.7,42.7874228,1.019467,,,,35
node,734905478,Pic Arraillous,,,,2704,42.8227946,-0.2194231,,,,139
node,988137858,Pic de la Mine,,,,2704,42.6939374,0.6480506,,Q3382407,,254
node,5568155816,Punta Yali,,,,2704,42.503434,0.3289687,,,,20
node,6205584185,,,,,2704,42.705923,-0.1854101,261,,,267
node,12376732234,Hèche de Bouneu,,,,2704,42.7123206,0.1009001,,,,46
node,13153318449,Pico de los Ibones de Pecico,,,,2704,42.7977467,-0.2344841,,,,48
node,4985263140,,,,,2703.6,42.6106761,0.896822,,,,20
node,3019903578,Pic Peyrot,,,,2703,42.8092843,-0.1483701,,,,70
node,3181195377,Picos de Labaza,,,,2703,42.7625043,-0.2084847,,,,84
node,4357378186,,,,,2703.0,42.7863244,1.011665,,,,16
node,6636720699,Tuc de Pébignau,,,,2703,42.8004048,-0.0892791,,,,104
node,12379467019,soum d'Astos,,,,2703,42.8262653,-0.0502465,,,,23
node,2422331574,Tuc Gran de Sendrosa,,,,2702.6,42.6239225,0.9468533,,Q17482116,,157
node,1409255535,Pointe de Peyreguils,,Pointe de Peyreguils,,2702,42.6406393,1.4769949,,Q30912930,,70
node,2287924278,Pic d'Étang Faury,,,,2702,42.6218178,1.9119543,232,,,85
node,7052367072,,,,,2702,42.6588352,0.2757994,,,,45
node,7554168573,Zuca Plana,,,,2702,42.6433268,0.0961254,,,,101
node,4210908760,Pico Balsera / Hombro de Escarra,,,,2701,42.7302865,-0.4426571,,,,102
node,6695519229,,,,,2701,42.6329873,0.4770528,,,,13
node,6869099183,Punta Ixabre,,,,2701,42.6796838,0.3958762,,,,162
node,9811382367,Pic Isarde,,,,2701,42.8683179,-0.1901915,,,,114
node,1241894412,Pico de Serrato / Tablato,,,,2700,42.7389836,-0.2096845,,,,84
node,1241953808,Pico Baldairán o de Batanes,,,Pico Baldairán o de Batanes,2700,42.7286827,-0.2033456,,,,140
node,1718385109,lo Tésol,,,,2699.9,42.6083796,1.0392609,,Q11933845,ca:Lo Tésol,158
node,6540006793,,,,,2699.4,42.6369563,0.7238623,,,,102
node,1250040183,Aguja de la Paúl,,,,2699,42.6724091,0.4582233,,,,103
node,3844255703,Pic de la Tossa de Juclar,,,,2699,42.6021116,1.7215218,,Q21330511,,116
node,5948002686,Pic Près de Puntussan,,,,2699,42.7259862,1.3635002,255,,,259
node,8984144325,Pic des Lavans,,,,2699,42.6127192,1.4291814,,,,97
node,12376576682,pic des Courtalets,,,,2699,42.7302928,0.4368179,,,,189
node,45161308,,,,,2698.9,42.6368285,1.5803532,,,,38
node,575756104,Tuc des Monges,,,,2698.6,42.6223834,0.8660238,,Q11953334,ca:Tuc des Monges,104
node,988137886,Cap des Hounts secs,,,,2698,42.7336242,0.515059,,,,71
node,1250020814,Tuca de la Paúl,,,,2698,42.6730517,0.4526513,,,,123
node,7523879316,Tuca Blanca de Pomèro,,,,2697.1,42.6685939,0.6797267,253,Q11953341,ca:Tuca Blanca de Pomèro,221
node,3808322647,Pic de Portarras,,,,2697,42.8664966,0.2111341,,,,31
node,3010400603,Pic dels Feixans del Prat,,,,2696.5,42.5635809,0.9947303,,Q17481989,ca:Pic dels Feixans del Prat,146
node,652132350,Pico de Sanchacollons,,,,2696,42.8030365,-0.3015492,,,,92
node,734787944,Pic Né,,,,2696,42.7903089,-0.1696371,,,,106
node,825982566,Pic du Piau,,,,2696,42.7635827,0.1472304,260,,,256
node,9732090160,,,,,2695.4,42.5983722,0.9931308,,,,104
node,1645536219,Pic d'Auriol,,,,2695,42.6127726,1.8502646,362,Q31652562,,372
node,1202464300,Pic des Trois Comtes,,Pic des Trois Comtes,,2694.7,42.7811074,1.0437829,,Q11953319,ca:Tuc dels Tres Comtes,190
node,11150430014,Pedró de la Serra,,,,2694.1,42.4433265,2.2584417,,,,91
node,1092109989,Pic de la Sède,,,,2694,42.7469286,0.1196183,,,,57
node,5657080968,Puntons Royos/Peña la Una,,,Puntons Royos/Peña la Una,2694,42.5342793,0.3159452,,,,90
node,5705550272,Pic de Nère,,,,2694,42.7349005,0.4582136,,,,-44
node,6695519227,,,,,2694,42.6321182,0.4834932,,,,28
node,6904713001,,,,,2694,42.6057762,0.3944409,,,,21
node,9292087337,Montraspo Alto,,,,2694,42.7020508,0.0668527,,,,34
node,12407611209,Cap de Xauxes,,,,2694,42.4430926,2.2310333,,,,52
node,12534045773,Pas de les Vaques,,,,2694,42.5802766,1.7055022,,,,16
node,283825973,Pic de la Bassera,,,,2693,42.5353877,1.4135529,,Q11941530,ca:Pic de la Bassera,49
node,652132563,Punta de la Tronquera,,,Punta de la Tronquera,2693,42.7361021,-0.4683501,,,,86
node,1241874510,Picos de Bachimaña,,,,2693,42.7821794,-0.244439,,,,54
node,7837461116,,,,,2693.0,42.7872819,1.0182842,,,,16
node,3707866573,Cap de Pletamala,,,,2692.9,42.5621924,0.9084039,,Q11912125,ca:Cap de la Pleta Mala,6
node,9084302008,,,,,2692.8,42.6032641,1.0391443,,,,119
node,46471675,Puig Pedró de la Tossa,,,,2692,42.4854956,1.7919423,,,,44
node,4210918416,Somola Alta,,,,2692,42.7025441,-0.4435285,,,,147
node,4323544311,Dent de Soques,,,,2692,42.818881,-0.3647586,,Q31629693,,64
node,8479233313,Pic de Cortal Rossó,,,,2692,42.5781566,1.8753353,,,,6
node,8734606188,Pic de Nabre,,,,2692,42.6246719,1.9044802,,,,71
node,6695660104,Tuc de Montoliu,,,,2691.3,42.7831772,0.935863,,Q17482761,ca:Tuc de Montoliu,122
node,353753837,Pic de Bacivers,,,,2691,42.4386996,2.2569345,,,,25
node,732200009,Pic des Taillades,,,,2691,42.9309037,-0.2837859,455,,,455
node,732266062,Le Courouaou,,,,2691,42.8709489,-0.2993483,200,,,241
node,9091526750,Cap de la Cometa del Forn,,,,2691,42.5845712,1.7498108,,Q115609594,,28
node,560286155,Petit Péric,,,,2690,42.6146806,1.9947769,,Q136783177,,86
node,9811382366,Tilholes,,,,2690,42.8720583,-0.211954,,,,195
node,3686735590,Pic de Llats,,,,2689,42.6436539,1.3716986,,Q17482344,ca:Pic de Llats,66
node,6871181750,,,,,2689,42.6788573,0.5378637,,,,50
node,13610302808,,,,,2688.6,42.601389,1.3870371,,,,48
node,3708178417,Roca Blanca,,,,2688.2,42.6036421,1.0386557,,,,34
node,733939402,Pic Mayouret,,,,2688,42.8324036,-0.116485,,,,156
node,801301202,Soum Blanc des Espécières,,,,2687,42.7168466,-0.0785008,,,,121
node,7180671330,,,,,2687,42.7001882,0.59491,,,,48
node,8247375821,Tucas de la Escaleta,,,,2687,42.6574729,0.6957721,,,,56
node,13610229751,,,,,2686.5,42.6068665,1.3602824,,,,14
node,577115332,Pic de Llena,,,,2686.4,42.44694,0.9178683,285,Q11941472,ca:Pic de Llena,284
node,3707656135,Agulla de Saboredo,,,,2686.3,42.6124152,0.9763213,,Q11904371,ca:Agulla de Saboredo,68
node,4150518312,,,,,2686,42.6211142,0.9473265,,,,66
node,4210970989,Sancha Collons Norte,,,,2686,42.805094,-0.3032819,,,,49
node,7175374378,,,,,2686,42.6916542,0.5857761,,,,71
node,7175374379,,,,,2686,42.6924516,0.5858823,,,,37
node,7188511965,,,,,2686.0,42.7915647,1.0087734,,,,17
node,3706616066,Pic del Clot d'Espós,,,,2685.4,42.5561996,0.7911129,,Q17481675,ca:Pic del Clot d'Espós,195
node,4909152584,,,,,2685.3,42.5169033,0.9005614,,,,19
node,45160999,Pic d'Arial,,,,2685,42.6559357,1.5492987,,,,52
node,626949709,Tuca de la Renclusa,,,,2685,42.6615663,0.6532903,,,,56
node,1203775336,Pic de Bourbonne,,,,2685,42.6711899,1.555208,,,,177
node,1250032838,Tuquet de Cauarère,,Tuquet de Cauarère,,2685,42.6829102,0.3210712,,,,160
node,5568219494,Pico la Rivereta,,,,2685,42.5353492,0.3354075,,,,63
node,6635835943,Pic d'Estragnat,,,,2685,42.8046465,0.0628556,,,,90
node,7552075764,,,,,2685,42.697992,0.0563665,,,,198
node,9292087334,,,,,2685,42.6980735,0.0534239,,,,111
node,652132500,Los Campaniles de Collarada,,,Los Campaniles de Collarada,2684,42.7179981,-0.4792142,,,,55
node,1409255551,Cap de la Coste Grande,,,,2684,42.6247072,1.4711685,,,,68
node,2160144574,Ras de l'Ortigar,,,,2684,42.3889332,2.1351883,,,,12
node,4347710761,Pic de la Coma del Forn,,,,2684,42.6779327,1.190154,,Q11941528,ca:Pic de la Coma del Forn,172
node,6872194291,,,,,2684,42.6815457,0.5183213,,,,32
node,7052367079,,,,,2684,42.6580225,0.2697708,,,,72
node,494395860,Pequeño Arriel,,Petit Pic d'Arriel,Pequeño Arriel,2683,42.8380917,-0.3350993,,,,78
node,1011636724,Pic de la Mina,,,,2683,42.5351324,1.7686007,,Q64025293,ca:Pic de la Mina,85
node,1250039202,Agulla de Chuisé,,,,2683,42.6388201,0.5098947,,,,100
node,1414634545,Pic de Fontargenta,,,,2683,42.6236973,1.7402774,,Q129630912,,67
node,6540006790,,,,,2682.6,42.6353689,0.7190101,,,,58
node,45160922,Pic des Fangasses,,,,2682,42.6454747,1.5187225,,Q115677991,,98
node,1103938461,Pic de Creussans,,,,2682,42.636075,1.4700352,,Q30912931,fr:Pic de Creussans,39
node,5948002685,Pic de Puntussan,,,,2682,42.7317492,1.365899,,,,109
node,6887943598,,,,,2682,42.6926965,0.3877395,,,,-2
node,7554217186,,,,,2682,42.6814935,-0.0293047,,,,11
node,3294901813,Cap des Cometes,,,,2681.4,42.523301,0.8950839,,Q17481763,ca:Cap des Cometes,29
node,652132569,Punta del Aguila,,,,2681,42.7212597,-0.4398178,,Q24003493,,122
node,3844217691,Pic de la Pala Alta,,,,2681,42.608213,1.6254544,,Q21330099,,45
node,4210913879,Cuchillares,,,Cuchillares,2681,42.7108934,-0.4464336,,,,110
node,4341202647,,,,,2681.0,42.5109832,1.0272649,,,,26
node,4519074165,,,,,2681,42.6770953,1.1896047,,,,26
node,5948002684,Pointe du Trou de l'Ours,,,,2681,42.7214493,1.3675268,,,,39
node,9811382368,Ségala,,,,2681,42.8705866,-0.187009,,,,103
node,9859119362,Bony d'Envalira,,,,2681,42.5184628,1.7073205,,Q115628184,,38
node,1249944105,la Tosseta,,,,2680.9,42.489967,1.7419194,,Q11930897,ca:La Tosseta (Meranges),16
node,9084301978,,,,,2680.9,42.6027067,1.0384011,,,,42
node,4040006737,,,,,2680.8,42.5304371,0.9376272,,,,76
node,3751336563,Agulla de Guerossos,,,,2680.5,42.7048527,1.2815712,,,,58
node,6635835944,Soum des Hours d'Estragnat,,,,2680,42.8040954,0.0764705,,,,82
