osm_type,osm_id,name,name_en,name_fr,name_es,elevation_m,lat,lon,prominence,wikidata,wikipedia,prominence_calc
node,4252339778,Aneto,Aneto,Pic d'Anéto,Pico Aneto,3404,42.6310731,0.6566457,2812,Q208081,an:Tuca d'Aneto,
node,3014258688,Montorroio,,,,2862.4,42.503108,1.0311336,224,Q11937485,ca:Montorroio,
node,575756206,Tuc del Port de Caldes,,,,2783.0,42.6161557,0.8945431,247,Q17483766,ca:Tuc deth Pòrt,
node,5077510823,Pic del Racó Gros,,,,2781.7,42.4322132,2.1871239,215,Q31632368,,
node,2287924278,Pic d'Étang Faury,,,,2702,42.6218178,1.9119543,232,,,
node,252229931,Géougue d'Arre,,,,2619,42.917093,-0.3272334,266,,,
node,4340934040,Pic de Montareing,,Pic de Montareing,,2594,42.7200505,1.2166416,200,Q11941475,ca:Pic de Mariola,
node,6804703470,,,,,2428,42.7510396,1.1392235,234,,,
node,6034732106,Montcau,,,,1794.2,42.3014444,1.2602034,200,Q17482726,ca:Montcau (les Valls d'Aguilar),
,,Pico Luen,,,,1766,42.20305,1.95083,690,,,
node,4546856608,Cap de Plan-de-Riba,,,,1759.4,42.1912998,1.1577752,279,Q11912097,ca:Cap de Plan-de-riba,
,,Hp Sierra De Campanué,,,,1555,42.37555,0.35166,575,,,
,,L'Obiol (Hp Sierra De Milany),,,,1549,42.1575,2.30416,672,,,
node,575907090,Puig d'Estela,,,,1361,42.2016815,2.3469961,240,,,
node,8865958812,Puigmal,,,,2909.94,42.383266,2.1167871,,Q17477,en:Puigmal,1333
node,26864258,Pica d'Estats,,Pique d'Estats,Pica d'Estats,3143.45,42.666952,1.3978986,1264,Q1537733,es:Pica d'Estats,1276
node,26862740,Cotiella,,,,2912,42.5119837,0.3197771,1196,Q5790190,ca:Cotiella,1196
node,26864263,Pico de Posets,,Pic des Posets,Pico de Posets,3368.60,42.6546289,0.4352271,1131,Q282981,,1136
node,12407611203,Puig d'en Vidal,,,,2392,42.5452217,2.2315698,,,,1105
node,652132462,Collarada,,,Collarada,2883,42.7142215,-0.470631,800,Q960756,,1091
node,12386854307,Mailh d'Ilhoun,,,,1908,42.9551423,-0.6210706,,,,1044
node,6288254531,Iparla,,,,1044,43.2282304,-1.3783628,335,Q31641691,,
node,592426256,Bisaurín,,,Bisaurín,2670,42.788488,-0.640004,1040,Q2904601,,1039
node,626639517,Vignemale,,,,3298,42.773943,-0.1473437,1025,Q1348903,es:Pico Viñamala,1029
node,26862551,Beriain,,,,1493,42.888256,-1.9801879,,Q3756086,,1025
node,9245987082,El Turbón,,,,2492,42.4167693,0.505212,,,,1022
node,26864237,Pic de Nore,,,,1211,43.4244218,2.462645,,Q1568041,,1020
node,26862904,Cap de la Gallina Pelada,,,,2321,42.1894121,1.7380582,1000,Q17482071,ca:Cap de la Gallina Pelada,1008
node,26864229,Pic Carlit,,,,2921,42.569841,1.932093,1006,Q2476121,ca:Carlit,1005
node,26864240,Pic de Soularac,,,,2368,42.8179995,1.781113,1007,Q3382390,fr:Pic de Soularac,1004
node,948790896,Monte Perdido,,Mont Perdu,Monte Perdido,3349,42.6755485,0.0343568,971,Q215662,an:Punta de Treserols,980
node,659540203,Tozal de Guara,,,Tozal de Guara,2078,42.288663,-0.2294258,968,Q6075076,,973
node,3710570432,Puig Neulós,,,,1257,42.4821146,2.9471789,974,Q7093,ca:Puig Neulós,970
node,8258430940,Arriaundi,,,,944,43.1271876,-1.7573071,299,,,
node,948779540,Peña Oroel,,,Peña Oroel,1769.60,42.5202848,-0.5423427,900,Q3054052,es:Peña Oroel,903
node,3709116151,Pic de Bacanère,,Pic de Bacanère,,2193.2,42.8460783,0.6752126,900,Q23990662,ca:Tuc del Pla de l'Home,899
node,948496889,Irulegi,,,,893,42.7794831,-1.513399,308,Q12259766,,
node,5155594499,Vulturó,,,,2648.6,42.2857753,1.6364247,872,Q2693141,ca:Vulturó,872
node,494395635,Pico Balaitús,,Pic du Balaïtous,Pico Balaitús,3146,42.8389387,-0.290257,851,Q2298456,es:Pico Balaitús,851
node,26864230,Auñamendi,,Pic d'Anie,Auñamendi,2504,42.9442932,-0.7206725,841,Q2030914,ca:Pic d'Anie,842
node,26864208,Peña Montañesa o Picón de Libro,,,,2294,42.490839,0.1992987,,,,826
node,26864202,Peña de Izaga,,,Peña de Izaga,1360,42.7122555,-1.4299117,801,Q8538688,es:Peña Izaga,802
node,948486367,Yerga,,,,1100.70,42.1435548,-1.9722401,,Q115511594,,802
node,45196117,Pic de Maubermé,,Pic de Maubermé,,2881.6,42.7937503,0.9171433,796,Q11953291,es:Mauberme,797
node,5110053174,Pointe de France,,,,2878,42.843766,-0.4381901,,,,796
node,3324901147,Murugain,,,,778,42.7785895,-1.3389309,294,,,
node,26864245,Pic du Midi de Bigorre,,,,2877,42.9367764,0.1416107,762,Q1139060,fr:Pic du Midi de Bigorre,777
node,11646994163,Pic de Madrès,,,,2469,42.6518211,2.1924234,755,Q954784,ca:El Madres,758
node,6161066269,Pedró dels Quatre Batlles,,,,2386.5,42.184752,1.5208725,757,Q7160088,ca:Pedró dels Quatre Batlles,758
node,576650666,la Tosa,,,,2536.4,42.3205828,1.8926568,759,Q3776656,ca:La Tosa,755
node,26862732,Pic de Comaloforno,,,,3029.2,42.5913788,0.827831,748,Q2984642,ca:Pic de Comaloforno,748
node,3296698808,Ezkaurre,,,,2045,42.8530784,-0.8412449,748,Q8538396,,748
node,26864248,Pic Long,,,,3192,42.8008266,0.1001273,732,Q3141369,en:Pic Long,740
node,897565387,Artxueta,,,,1345,42.9525155,-1.9640224,,Q12254240,,739
node,948746780,Punta Llerga,,,,2266.60,42.5443472,0.2265632,739,Q23995194,,738
node,1984650746,Sant Alís,,,,1675.4,42.0398347,0.7665147,733,Q7419072,ca:Sant Alís,733
node,26864264,Torreta de l'Orri,,,,2437.7,42.4087313,1.2147031,718,Q11952583,ca:Torreta de l'Orri,715
node,26864194,Pech de Bugarach,,,,1231,42.8637712,2.3791036,701,Q73420,fr:Pech de Bugarach,714
node,26864260,Pic de Moredo,,,,2765.9,42.7189355,1.0499162,694,Q17482782,ca:Pic de Moredo,695
node,1699934389,Pic des Trois Seigneurs,,,,2199,42.8305212,1.4401118,682,Q3382418,,685
node,6026696842,Serrat Negre,,,,1779.3,42.2006327,1.9334374,684,,,684
node,255036483,La Rhune,,La Rhune,,905,43.3090371,-1.635508,678,Q2737839,,683
node,11646993950,Baigura,,,,897,43.290483,-1.2928827,677,Q3321695,,681
node,26864196,Pollegó Superior,,,,2506,42.2399434,1.7029318,663,Q60847493,fr:Pollegó Superior,667
node,948791971,Santo Domingo,,,,1524.50,42.4423744,-0.9177846,661,Q65398079,es:Pico Santo Domingo (España),666
node,26864384,Punta Suelza,,,Punta Suelza,2972,42.6520423,0.289818,658,Q23992064,,659
node,3122632328,Tossal de les Torretes,,,,1676.4,42.0219928,0.9383458,646,Q7827876,ca:Tossal de les Torretes,659
node,26862611,Cap de Boumort,,,,2077.2,42.2350188,1.134656,655,Q5034453,ca:Cap de Boumort,657
node,579893382,Puigpedrós,,,,2915,42.487576,1.7619109,653,Q968445,ca:Puigpedrós,655
node,26864645,Santa Magdalena de Cambrils,,,,1547.3,42.1689548,2.3402461,656,,,655
node,9013437739,Mont Rouch de France,,,,2868,42.7117214,1.1768555,,,,654
node,8280351615,Pico Perdiguero,,Pic Perdiguère,Pico Perdiguero,3222,42.6920006,0.5188647,650,Q2746833,,653
node,1250029649,Suerio,,,Suerio,1954,42.5341152,-0.0841593,,,,648
node,3698268517,Roc del Comptador,,,,1450.9,42.4227826,2.7272989,628,Q7353670,ca:Roc del Comptador,637
node,26864464,Rochers de la Mirouge,,,,1542,42.8107817,1.6694953,,,,627
node,4210943020,Peña Retona,,,Peña Retona,2767,42.6989583,-0.4155242,277,Q23992954,sv:Peña Retona,625
node,26862659,Cap del Verd,,,,2284,42.2008176,1.6137124,615,Q5034455,ca:Cap del Verd,619
node,948493623,Hautza,,,,1304.50,43.1513319,-1.4202765,,Q3128667,,618
node,26864246,Pic du Moulle de Jaüt,,,,2050,43.0257512,-0.3418939,,,,614
node,26863526,Soum de Layens,,,,1625,43.024758,-0.6559539,,,,614
node,4502759227,Pic de Montious,,,,2173,42.8617383,0.439874,,,,606
node,1400940495,Punta Culfreda Sur,,Pic de Batoua,Punta Culfreda Sur,3034,42.7087042,0.336307,577,Q31651797,,604
node,26864262,Ori,,Pic d'Orhy,Ori,2017,42.9885511,-1.0061019,601,Q2030404,,603
node,26864971,Trône du Roi,,,,1266,43.0626546,-0.6323152,,,,593
node,26863483,Pala del Teller,,,,1889.3,42.3168558,0.8094571,554,Q17482903,ca:Pala del Teller,587
node,1092110351,Pico de la Munia,,Pic de la Munia,Pico de la Munia,3133,42.7148957,0.1319236,673,,,584
node,3292201828,Higa de Monreal,,,,1289,42.6958508,-1.5312513,,,,584
node,26864154,Ortzantzurieta,,,,1566,43.021941,-1.2759637,,Q8538854,,583
node,26863008,Bachimala,,Schrader,Bachimala,3177,42.6985978,0.3944255,564,Q2092038,fr:Pic Schrader,573
node,26863527,Le Lurien,,,,2826,42.857275,-0.3503721,574,,,570
node,660613594,Navaín,,,Navaín,1798,42.4927569,0.0247622,,,,570
node,26862531,Puig de Bassegoda,,,,1373.3,42.3127984,2.6307749,570,Q4894784,ca:Puig de Bassegoda,568
node,4959709279,Sant Salvador Saverdera,,,,682.0,42.3199582,3.1678342,555,Q17483518,ca:Sant Salvador Saverdera,565
node,26864232,Pic de Cagire,,,,1912,42.9465968,0.7658842,,Q3382354,ca:Pic de Cagire,564
node,26863271,Jara,,,,812,43.2000728,-1.292907,,,,561
node,652132494,Infierno Central,,Pic Central d'Enfer,Infierno Central,3080,42.7814949,-0.2605587,552,,,558
node,577086031,Pic de Peguera,,,,2982.7,42.5405381,1.0119532,555,Q7190465,ca:Pic de Peguera,558
node,35308286,Pic du Canigou,,,,2784.66,42.5189047,2.4565596,550,,,557
node,1329675144,Tuc de l'Adosse,,,,1669,42.8263454,1.2741673,,,,557
node,5375778209,Pic d'Aret,,,,2939,42.7542863,0.2750079,540,Q31653203,,543
node,3707866584,Punta Alta de Comalesbienes,,,,3014,42.5857601,0.8803745,539,Q7260504,ca:Punta Alta de Comalesbienes,542
node,26864238,Pic de Paloumère,,,,1608,42.9610927,0.8434471,,Q49753128,,540
node,1304124047,el Cogul,,,,1526.0,42.1100399,1.6394585,536,Q5351039,ca:El Cogul (Navès),535
node,732725482,L'Escarpu ou Pic de Sesques,,,,2606,42.9191814,-0.5037737,523,Q49753105,,528
node,571121503,Pic d'Aspe,,Pic d'Aspe,,2640,42.7634819,-0.5657495,525,,,526
node,1250018374,Lo Graller;Montgai,,,,1330.50,42.0732703,0.6587724,,Q11933753,ca:Lo Graller,526
node,659540195,La Gabardiella,,,,1696,42.3037148,-0.3101921,,,,525
node,3328440049,Belbún,,,,1424,42.6908058,-1.0422129,,,,524
node,2188365878,Pic de l'Estanyó,,,,2915,42.6086785,1.5926138,519,Q4563375,ca:Pic de l'Estanyó,523
node,26862533,Pico Baciero,,,Pico Baciero,2115,42.458136,0.4613766,515,,,522
node,5453495298,,,,,1556,42.3492086,0.4976509,,,,519
node,1329675213,Pic de Certascan,,,,2853.3,42.7119892,1.2776779,513,Q11941458,ca:Pic de Certascan,516
node,948742415,Orba,,,,1226.30,42.6392609,-0.9746885,,,,516
node,1825431806,Pic de Néouvielle,,Pic de Néouvielle,,3091,42.8353661,0.1151204,487,Q3088745,fr:Pic de Néouvielle,515
node,6905677133,Puntal de Chía,,,,2515,42.551155,0.420608,509,,,515
node,11063995093,Peña Forca,,,,2390,42.8245008,-0.755446,,,,514
node,986027125,Mont Valier,,,,2838,42.7978573,1.0857291,515,Q2420742,fr:Mont Valier,510
node,1250026636,Pico Tendeñera,,,,2845,42.6798404,-0.1993344,494,,,506
node,667976440,Soum de Granquet,,,,1881,43.0249758,-0.2135361,,,,506
node,483646109,Cuculo,,,Cuculo,1552,42.5250103,-0.7112424,,,,506
node,481463092,Signal de Bassia,,,,1921,42.9771546,0.3041389,,,,504
node,948495240,Erga,,,,1094.30,42.9279815,-1.8108784,,Q6022395,,503
node,948782671,Cancias,,,,1928.70,42.4656758,-0.1396964,,Q115500722,,498
node,948494798,Adi,,,,1457.10,43.0195396,-1.4452202,,Q8188242,,498
node,948497195,Saioa,,,,1418.30,43.0459429,-1.559205,,Q8538692,,495
node,659541742,Pusilibro,,,Pusilibro,1595,42.3441625,-0.5978321,,,,490
node,1091885439,Tuc dera Pincela,,,,2535.6,42.7428606,0.8756981,488,Q11953323,,489
node,3421804427,Pic de Salòria,,,,2788.8,42.5144541,1.3851452,486,Q7190467,ca:Pic de Salòria,487
node,3891003630,Cap de Bouirech (Bouirex),,,,1874,42.8686586,1.1164968,,Q31650476,,481
node,1167184319,Peñablanca,,,,1583,42.8587247,-0.9718426,,Q12265816,,481
node,3214318858,Alto del Perdón,,,Alto del Perdón,1034,42.7333784,-1.7018552,,Q56822896,eu:Erreniega (mendia),479
node,6186107417,Pico Cibollés,,,Pico Cibollés,2749,42.5409749,0.5720618,477,,,477
node,989447298,Pic de Sérau,,,,1720,42.8994452,0.943351,,,,477
node,733904691,Moun Né,,,,2724,42.8935906,-0.1673211,468,Q3325945,,475
node,4215162078,Tozal de Paco Tiesto,,,,1563,42.3042937,-0.0404506,,,,470
node,8270116021,La Quille,,,,966,42.8463317,2.5516303,,Q31666906,,470
node,734049638,Pic de Montaigu,,,,2339,42.9837315,0.0687795,,Q3382430,,468
node,1102683433,Tuc de l'Étang,,,,1816,42.9019979,0.7662365,,,,467
node,1393460398,Rocher de Batail,,,,1715,42.9056164,1.5063049,,Q31651827,,466
node,948495516,Irakurri,,,,1142.40,43.100626,-1.8396357,,Q12259707,,465
node,11646993895,La Madeleine,,,,795,43.1472999,-0.844413,,,,463
node,948465873,Jaizkibel,,,,545.30,43.3452869,-1.8559722,,Q115504316,,463
node,9505426933,Roc de la Cabanette,,,,891,42.91766,2.6749778,,,,460
node,1118683256,Cap du Mont,,,,1257,42.9225053,0.7040893,,,,458
node,11646993918,Urtsua,,,,679,43.3436459,-1.3340308,,Q3322163,,458
node,12397389405,Sarrat,,,,1059,42.9766234,0.601379,,,,456
node,732200009,Pic des Taillades,,,,2691,42.9309037,-0.2837859,455,,,455
node,3291236073,Errazu,,,,1387,42.9301408,-1.3235716,,,,455
node,4153508750,Montolier de Perellos,,,,707,42.9184812,2.8650938,,,,452
node,6185638278,Puig Pedrós Sud,,Puig Pedrós Sud,,2842,42.5885591,1.8730538,,,,448
node,1142897713,Lakartxela,,,,1982,42.9514599,-0.8905991,,Q8538704,,447
node,2037961135,,,,,1394,42.7907548,2.1510807,,,,443
node,4437993524,Roc de Sant Aventí,,,,1480.1,42.3072223,0.9742524,440,Q11945838,ca:Roc de Sant Aventí,442
node,4922082517,Punta Manchoya,,,,2035,42.5681938,-0.166946,,,,441
node,2058928938,lo Coscollet,,,,1610.1,42.1141367,1.2675152,331,Q5351076,ca:El Coscollet,441
node,948494726,Baigura,,,,1474,42.8711914,-1.2429235,,Q56478572,eu:Baigura (Areta),441
node,11646994063,Pic du Gar,,,,1785,42.9502913,0.6987221,,Q3382425,ca:Pic del Gar,440
node,901125108,Pic de Comapedrosa,,,,2943,42.591799,1.4436614,434,Q62467,ca:Comapedrosa,436
node,11646993831,Mont Coronat,,,,2172,42.6093726,2.2586254,,Q27807916,ca:Mont Coronat,435
node,2931916530,Ipuliño,,,,934,43.1218431,-1.9530574,,Q111566631,eu:Ipuliño (mendia),435
node,3946611582,Las Leras,,,,1361,42.6474754,-1.0975306,,,,433
node,1249953979,Montmajor,,,,1073,42.2687918,2.4830557,,Q11937479,ca:Montmajor (Montagut i Oix),433
node,2430121064,Puigsallança,,,,1027.3,42.1150511,2.5815121,438,Q7259041,ca:Puigsallança,433
node,5451941056,Tossal de Pegà,,,,1801,42.4052355,0.6299497,434,,,432
node,1959427103,Taga,,,,2039.90,42.2807611,2.2098988,431,Q8538568,ca:Taga,431
node,659540238,Pico del Águila,,,,1627,42.3077309,-0.4027075,,,,428
node,2426987626,Puig de Coma Negra,,Puig de Coma Negra,,1557.7,42.3332995,2.5277649,425,Q4889555,ca:Comanegra,428
node,4215250296,Plamajou,,,,1041,43.00984,0.64428,,,,428
node,733993042,Pic d'Ardiden,,,,2988,42.8340053,-0.0676333,423,Q3382344,,426
node,11646994179,Roc de Sédour,,,,1066,42.865844,1.5844231,,,,424
node,592395967,Oturia,,,,1920,42.5345135,-0.2683068,,,,423
node,1250020879,Cerro Ferrera,,,Cerro Ferrera,1392,42.4531365,0.016202,,,,422
node,1249948170,el Pedró (Rasos de Peguera),,,,2079,42.1473154,1.7787539,419,,,418
node,1163394601,Gorramakil,,,,1090,43.219438,-1.4325327,,,,418
node,11646994146,Pech dels Escarabatets,,,,1342,42.7834041,2.3259129,,,,412
node,11646994160,Picolet du Quirhaut,,,,1288,42.8472957,2.1280285,,Q31632657,,412
node,494395676,Pic Palas,,,,2974,42.8494134,-0.3132716,401,Q3382327,fr:Pic Palas,410
node,989447282,Pic de Fonta,,,,1934,42.8045229,1.1582625,,,,410
node,5602358252,Bramapán,,,,1546,42.5314826,0.0737545,,,,410
node,1013235033,el Mont,,,,1124.8,42.2588803,2.706312,,Q6758738,ca:El Mont (Albanyà),410
node,3632608353,Tosa de Siscaro,,,,2818,42.5890571,1.7267866,,,,409
node,1142984775,Mesa de los Tres Reyes,,Pic des Trois Rois,Mesa de los Tres Reyes,2446,42.9193893,-0.7274923,397,Q546180,,407
node,870097596,Pic d'Escurets,,,,1440,43.0871731,-0.5135179,,,,405
node,948497083,Mendaur,,,,1130.60,43.1554453,-1.7192864,,Q3305754,eu:Mendaur,405
node,1250016722,Santa Bárbara,,,,1172,42.3189279,0.231261,,,,403
node,1102580806,Pic du Port ou Pic de Font Blanca,,Pic du Port ou Pic de Font Blanca,,2903,42.6496897,1.5343398,389,Q3382368,ca:Pic de la Font Blanca,402
node,273188840,Puig d'en Jordà,,,,754.2,42.4277552,3.082045,402,Q11943529,ca:Puig d'en Jordà,401
node,1165875754,Urepel,,,,1056.69,43.1344264,-1.9040209,,,,400
node,989266166,Mont Las,,,,1729,42.9299363,0.5336849,,,,396
node,957459313,Pic Arrouy,,,,1552,42.953446,-0.1785205,,,,396
node,5188131772,L'Embarrère,,,,2221,42.961905,-0.5223709,,,,394
node,11646993933,Pic d'Arradoy,,,,660,43.1870982,-1.2346896,,Q12254059,,394
node,474976107,Piméné,,,,2801,42.7356146,0.021642,378,,,393
node,5044446242,Cap d'Aruille,,,,1252,42.9288554,1.1441145,,,,392
node,2008250724,Tossa Plana de Lles,,,,2904.9,42.468233,1.6565494,390,Q11941543,ca:Pic de la Portelleta,390
node,6039758913,Ihatea hegoa,,,,1286,43.1136564,-1.0077851,,,,390
node,1304134189,Tuc des Armèros,,,,2533.7,42.7812475,0.8769094,386,Q24002832,,389
node,3865626715,Eguzkizko Muinoa,,,,1083,43.1009315,-1.8776492,,Q31187687,,389
node,11646994148,Pic d'Estable,,,,1495,42.7844048,2.2721987,,,,387
node,5217554979,Puig de la Senyoral,,,,1306,42.4203137,2.6487508,,Q31074173,ca:Puig de la Senyoral,387
node,1250038823,Pic de Gabiet,,,,2716,42.721251,-0.0874519,374,Q3382366,fr:Pic de Gabiet,386
node,11646993932,Artzamendi,,,,926,43.282856,-1.4084331,,,,386
node,1060153622,Pic de Sauvegarde,,Pic de Sauvegarde,,2736,42.6949418,0.6309305,371,Q3382388,,384
node,3021851619,lo Tossal,,,,2493.9,42.4346372,1.019389,386,Q11933827,ca:Lo Tossal (Sort),384
node,2833419285,Sant Corneli,,,,1351.1,42.1827966,1.0028054,383,Q7419084,ca:Sant Corneli,384
node,11649674789,Pic Péric,,,,2810,42.6135585,1.9844075,384,Q11943424,ca:Puig Peric,383
node,3706616041,Cap de Gelada,,,,2448.6,42.5215534,0.7651351,375,Q17481530,ca:Cap de Gelada,381
node,6025162783,Secundaria Txamantxoia,,,,1941,42.902427,-0.8163089,,,,381
node,841976648,Pic de Sudou,,,,1167,43.0608679,-0.7758537,,,,381
node,11646993826,Pic Bastard,,,,2093,42.5824094,2.1375031,,Q31651841,ca:Pica Bastard,379
node,3041986926,Ireber,,,,1207.88,43.0489668,-1.8428002,,Q12259736,,379
node,652132535,Pico de Arriel,,Pic d'Arriel,Pico de Arriel,2824,42.834117,-0.3312968,378,Q3382351,fr:Pic d'Arriel,378
node,247102455,Soum des Salettes,,,,2976,42.7687509,0.1110067,380,,,377
node,736135862,Arbizon,,,,2831,42.8759675,0.2726372,366,Q2859683,,377
node,11753354846,Sarrat de Rouquières,,,,1630,42.8228624,1.8778007,,,,377
node,3087736925,Puig de Millà,,,,1025.1,42.0017071,0.6721592,,Q17482582,ca:Puig de Millà,377
node,11646993798,Serrat de la Mente,,,,2135,42.4999883,2.3189686,,,,376
node,652132357,Diente de los Batanes S,,,Diente de los Batanes S,2912,42.7689157,-0.199129,371,,,375
node,12367810925,Alkurruntz,,,,927,43.2206249,-1.5072575,,,,375
node,2518475415,Buñero,,,,1109,42.0619873,0.314148,,Q11910228,,374
node,659540233,Peñarrueba,,,Peñarrueba,1107,42.2462512,0.1236819,,,,374
node,4153110180,Larrogain,,,,1277,42.9037645,-1.4098801,,Q12261941,,373
node,5474887995,Pic de l'Aspre,,,,1011,42.9486091,1.6991097,,Q31652756,,373
node,1645536219,Pic d'Auriol,,,,2695,42.6127726,1.8502646,362,Q31652562,,372
node,11646994149,Les Crêtes d’Al Pouil,,,,1037,42.8687891,2.2968957,,,,371
node,734648015,Pène Male,,,,2582,42.8172672,0.2400232,368,,,370
node,5567221123,Montagne du Rey,,,,1349,43.0766614,-0.3907549,,,,368
node,1960724509,Ezkaba,,,,895,42.8556207,-1.6646758,,Q12993259,eu:Ezkaba (mendia),366
node,5453626132,Peña Solano,,,,1916,42.5057243,0.2056766,,,,365
node,5046018369,Pic de Turp,,,,1620.4,42.1511422,1.3472801,363,Q17483805,ca:Pic de Turp,365
node,2192182868,Tallón,,Pic du Taillon,Tallón,3144,42.6936421,-0.0512874,342,Q3141527,fr:Pic du Taillon,363
node,3635508945,els Cloterons,,,,2179,42.2381435,1.6260193,360,Q17481679,ca:Els Cloterons,363
node,576676018,Pics de Bassiero - Punta Brulle,,,,2903.5,42.6066704,0.9953644,361,Q17481321,ca:Pics de Bassiero,362
node,11646993808,Pic de Font Negra,,,,2877,42.5225174,1.7522544,362,,,362
node,5292237680,Sestral Alto,,,Sestral Alto,2101,42.57521,0.0679,,Q13050161,an:Sestrals,362
node,534587482,Pic du Grand Jer,,,,950,43.0800593,-0.0310102,,,,360
node,1250017266,Pico Inferior de Añisclo / O Zucón,,,,2802,42.6512999,0.0792282,349,,,359
node,824527187,Pic de Garlitz,,,,2798,42.7465738,0.2147315,347,Q3382370,,356
node,479370783,Erroilbide,,,,837,43.2816822,-1.7854264,,,,356
node,1250015474,Castillo de los Santos,,,Castillo de los Santos,1447,42.2377433,-0.0284205,,,,355
node,3953443250,Idokorri,,,,1071,42.7105701,-1.1865676,,Q112783606,eu:Idokorri,355
node,4352929231,Mont Begousse,,,,767,43.0895431,-0.83184,,Q12254920,,355
node,11646993901,Larla,,,,700,43.2372058,-1.3387454,,,,355
node,1250039703,Pico de Acué,,,Pico de Acué,2258,42.8201375,-0.6020111,,Q23990659,an:Punta Acué,353
node,2440306491,Puigsou,,,,988.0,42.0726072,2.6861012,,Q7259040,ca:Puigsou,353
node,577016538,Pui d'Urdosa,,,,2226.1,42.4711857,1.2483164,348,Q17483809,ca:Pui d'Urdosa,350
node,2407662974,Pedró de Tubau,,,,1543.2,42.2202066,2.0496279,349,Q11940746,ca:Pedró de Tubau,350
node,12831300952,Punta de Larraz,,,,1422,42.661258,-0.6947683,,,,349
node,5453487984,,,,,1448,42.3082343,0.4780923,,,,348
node,5490150582,,,,,1041,42.8337257,2.2536871,,,,346
node,659540097,Bonés,,,,1608,42.3301024,-0.4633402,,,,345
node,5219310644,Mail Deou Ret,,,,946,43.0672381,-0.68192,,,,344
node,4841479131,Soum de Segú,,,,765,43.1162143,-0.6513521,,,,344
node,5840333152,Peñón de San Martín,,,,1792,42.5800818,0.3081683,,,,343
node,3290742969,Okabe,,,,1466,43.0346109,-1.1069474,,,,343
node,12406689071,Bisarce,,,,792,43.1004871,-0.6307673,,,,343
node,732266075,Pic des Tourettes,,,,2771,42.889453,-0.3152519,302,,,341
node,11646994159,Pic Dourmidou,,,,1844,42.7085723,2.266157,,Q47002668,ca:El Dormidor (Mosset),341
node,9231028040,Cerro Malacastro,,,Cerro Malacastro,1079,42.4088982,-0.6745756,,,,341
node,3163888417,Signal d'Alaric,,,,590,43.1477833,2.628013,,,,341
node,4215642939,Grande aiguille d'Ansabère,,,,2377,42.9005084,-0.7295381,,Q3115041,,340
node,11646993943,Sommet de Cambillou,,,,660,43.1738794,-0.7479873,,,,340
node,1250040083,Tuca de Vallibierna,,,Tuca de Vallibierna,3059,42.5940416,0.6530895,329,Q3100806,es:Pico de Vallibierna,339
node,494178001,Pic Alphonse Meillon,,,,2930,42.7984472,-0.1608291,336,,,339
node,3669894087,Pic de Tristagne,,Pic de Tristagne,,2878,42.6534813,1.4937644,336,Q3382394,,339
node,659540105,Punta Coasta,,,Punta Coasta,1671,42.503593,-0.176232,,,,339
node,1203775378,Pic de l'Aspre,,,,2744,42.6713754,1.5159766,336,,,338
node,652132530,Pico Arroyetas,,,,2556,42.7660632,-0.4388738,,,,337
node,5107912842,Bony de la Pica,,,,2402.00,42.5044765,1.4603267,334,Q17481918,ca:Bony de la Pica,335
node,5489688877,La Calm,,,,1595,42.7534243,2.1460802,,,,335
node,8239063702,Tuturruko Kaskoa,,,,1047.16,43.2245063,-1.3825731,,,,335
node,5969150913,Serre de la Quière,,,,1029,42.8023021,2.3295924,,,,335
node,940795297,La Pique ou Mont Béas,,,,1903,42.8076263,1.3616407,,Q3321714,,334
node,576997564,Punta Comiello,,,Punta Comiello,1889,42.5512333,-0.026467,,,,333
node,957015610,Pic de Bazès,,,,1804,42.9963786,-0.2283798,,,,333
node,4210410315,Castillo de Acher,,,Castillo de Acher,2384,42.8228361,-0.6680591,,Q5488790,es:Castillo d'Acher,332
node,733858766,Izarbe,,,,1559,43.0182519,-0.8027194,,Q56759619,,332
node,11646993783,Mont Nègre,,,,1425,42.3622149,2.5598919,,Q11937482,ca:Montnegre (Vallespir),332
node,1987606827,el Pení,,,,607.7,42.2813997,3.2432039,323,Q11940847,ca:Pení,332
node,948493404,Ortxikasko,,,,977.60,42.8882393,-1.6298505,,Q112784335,eu:Ortxikasko,331
node,1103938431,Pic de la Soucarrane ou de la Rouge,,Pic de la Soucarrane ou de la Rouge,,2901,42.6249356,1.4204281,324,Q17483012,ca:Pica Roja,329
node,2267170996,Soum de Bassia du Hoo,,,,2571,42.8836649,-0.2515112,288,,,329
node,948789279,Castillo Mayor,,,Castillo Mayor,2014.00,42.579622,0.1263681,,Q24002569,,329
node,626639809,Soum d’Aspé,,,,2968,42.7772259,-0.0816339,316,,,328
node,2883664642,Serra de Carrànima,,,,1629.7,42.166262,1.1424616,327,,,328
node,1250040152,Tozal Corona,,,,878,42.2964878,0.2068162,,,,328
node,1250026769,Tossal de les Cornasses,,,,1508,42.3210553,0.7203874,322,,,327
node,1250039108,Tobacor,,,Tobacor,2779,42.6556506,-0.0135111,325,,,326
node,6299928185,,,,,1806,42.1914802,1.140333,326,,,326
node,1250020311,Pico de la Calma Alta,,,,1581,42.2948971,-0.4468478,,,,326
node,1091885528,Pic de Barlonguère,,Pic de Barlonguère,,2802.4,42.7885614,1.0098512,296,Q17587743,ca:Tuc de Barlonguèra,325
node,3818593529,Cadinell,,,,2113.4,42.2643828,1.5978422,321,Q17481450,ca:Cadinell,323
node,4048673456,Le Plagnol,,,,782,43.4938853,2.6598455,,,,322
node,575756401,Gran Pic del Pessó,,,,2894.0,42.5094803,0.9240888,317,Q11924604,ca:Gran Pic del Pessó,321
node,12046210450,Pica de Cerví,,,,2754.1,42.4529537,0.8792394,,Q11941568,ca:Pica de Cerví,321
node,1648941936,Cap de Payssas,,,,922,42.9856451,0.7707028,,,,321
node,948794459,Virgen de la Peña,,,,1291.20,42.6955474,-1.0041772,,Q23990544,,320
node,6252594330,Punta Maristás,,,,2419,42.612653,0.2849433,316,,,319
node,4325244967,Pic d´Estrèmére,,,,2165,42.8096504,-0.4041695,,,,319
node,12923704796,Antruetas,,,,850,42.0232421,-1.9691688,,,,318
node,3039425759,les Piques,,,,1969.3,42.3209678,1.1758606,251,Q11931652,ca:Les Piques (les Valls d'Aguilar),317
node,1250018981,Pico Cervín o Tozal de la Rasa,,,Pico Cervín o Tozal de la Rasa,1683,42.4348145,0.4300659,315,,,317
node,4153059495,Elke,,,,1294,42.8917567,-1.3538292,,,,317
node,5486484628,Pene d'Udapet,,,,1774,42.8939113,-0.5852889,,,,316
node,3289952449,Bagadi,,,,898,42.7491381,-1.5367901,,,,316
node,5490324879,Santa Anna dels Quatre Termes,,,,1348,42.565142,2.5611707,,Q25434148,fr:Santa Anna dels Quatre Termes,313
node,4640139134,Cap de Pla Redon,,,,1846.2,42.2755203,1.2670191,313,Q17483042,ca:Cap de Pla Redon,312
node,11646993878,Pic de Vergès,,,,584,42.7698309,2.5267091,,,,311
node,593920570,Portiello,,,,1543,42.4526311,-0.2723838,,,,310
node,659540066,Peñarruaba,,,,1466,42.3051834,-0.1186661,,,,310
node,988137855,Pic de Hourgade,,,,2964,42.7338413,0.448784,234,Q3382372,,309
node,1304128778,Pic de Serre-Haute,,Pic de Serre-Haute,,2714.8,42.813222,0.8853619,301,,,309
node,1250023428,Peña las Once,,,Peña las Once,2651,42.5476887,0.3468823,300,,,308
node,6277461534,Tozal de la Calura,,,Tozal de la Calura,1021,42.3804461,0.2172803,260,,,307
node,2005388000,Monteixo,,,,2905.1,42.6017386,1.3616475,297,Q8531408,ca:Monteixo,306
node,255545199,Montardo,,,,2833.2,42.6333384,0.8753441,297,Q3176503,ca:Montardo,305
node,11646994171,Pic de Tarbésou,,,,2364,42.7138794,1.9707367,,Q49753143,,305
node,1678267445,Puigllançada,,,,2409.2,42.3004845,1.9355066,303,Q7259037,ca:Puigllançada,304
node,948496190,Aizkolegi,,,,841.40,43.1907546,-1.589737,,Q66738452,,304
node,494395411,Pico de Cambalés,,Pic de Cambalès,Pico de Cambalés,2965,42.8236117,-0.2435536,297,Q18415042,,303
node,1249943351,Salga Aguda,,,,1172.1,42.1192589,1.9514086,,Q17483443,ca:Salga Aguda,303
node,11646993934,Hotxa Handia,,,,572,43.2560392,-1.1739861,,,,301
node,6299978795,Sant Antoni,,,,1361,42.3051179,2.3759542,281,,,300
node,3294843047,Bizkai,,,,823,42.8849549,-1.8152574,,,,298
node,788356306,Lakora,,Pic Lakhoura,Lakora,1875,42.955739,-0.8374323,,Q12261814,,297
node,948811981,Punta la Negra,,,,649.90,42.0742409,-1.3099927,,Q66314603,,297
node,5738330586,Sant Julià del Mont,,,,907.4,42.1730433,2.5775337,,,,296
node,670506083,Manttale,,,,574,43.3091484,-1.7033542,,Q20492382,,296
node,444752584,Peña Foratata,,,,2321,42.7881647,-0.3456474,288,,,295
node,989266170,Mont Né,,,,2147,42.8770702,0.4766567,,Q49752848,,295
node,903331978,Pic de Gérentos / Pic du Mont-Ceint,,,,2088,42.7901455,1.4066049,,,fr:Pic de Gérentos,295
node,11646993941,Errozate,,,,1345,43.0441129,-1.1714906,,Q3057489,,295
node,1110166128,Ttutturregi,,,,1292,42.9925532,-1.9971039,,Q12268266,,295
node,577181038,Tuc de Sarrahèra,,,,2634.1,42.644249,0.7963568,292,Q11953307,ca:Tuc de Sarrahèra,294
node,940797587,Tuc de La coume,,,,1745,42.8426094,1.3374001,,,,294
node,1243075310,San Gregorio,,,,942,42.9107964,-1.7506815,,,,294
node,5002035131,Cerro de Calvera,,,Cerro de Calvera,1154,42.1692694,0.4732066,,,,293
node,3702570234,Castell de Bac Grillera,,,,1056.9,42.3601151,2.7038644,294,Q17481590,ca:Castell de Bac Grillera,293
node,4210946013,Tarmañones,,,,1966,42.7310214,-0.3499066,,,,292
node,3762254956,Soum d'Ire,,,,1353,43.0488064,-0.7025193,,,,292
node,5030725843,Montlude,,,,2517.7,42.7852593,0.7587108,286,Q11937477,ca:Montlude,291
node,581803081,Telera,,,Telera,2761.80,42.6911117,-0.3739644,617,Q3572228,,290
node,5374871732,Soum Blanc de Secugnat,,,,2577,42.757421,-0.0494195,296,,,290
node,734648028,Pic de Lustou,,,,3023,42.7347815,0.3600008,265,,,289
node,1720511122,Pic de l'Arraillhé,,,,1242,43.0521055,-0.6385191,,,,289
node,12398204722,Cap d'Estivère,,,,1211,43.0164551,0.4012902,,,,289
node,1250017991,Acherito,,,,2374,42.8914482,-0.7372228,,Q24002087,,288
node,11646993887,Pic de Mont Caup,,,,1246,43.0053275,0.5148717,,,,288
node,11968721935,Dozola,,,,1401,42.7627854,-0.8905122,,,,287
node,5489622676,Mont Arrouy,,,,2781,42.8367833,0.0738054,272,,,286
node,3425812155,Montpetit,,,,900.9,42.2635254,2.4998388,,Q11937498,ca:Montpetit,286
node,494455699,Pico del Ibonet,,Pic d'Arriouère,Pico del Ibonet,2866,42.7115242,0.2607812,247,,,285
node,989447281,Tuc de Nédé,,,,1637,42.8939295,0.9049173,,,,285
node,5487202470,Pic d’Aguzou,,,,1382,42.7566365,2.1004005,,,,285
node,2670756459,Pic d'Arneille,,,,1271,43.016434,0.3407096,,,,285
node,11646994061,Pic de Campoun,,,,880,43.0168509,0.6958854,,,,285
node,575896583,Pico de la Gran Facha,,Grande Fâche,Pico de la Gran Facha,3005,42.8081942,-0.237874,283,Q3114948,es:Pico Gran Facha,284
node,577115332,Pic de Llena,,,,2686.4,42.44694,0.9178683,285,Q11941472,ca:Pic de Llena,284
node,1304136235,Tuc d'Òrla,,,,2632.8,42.7872711,0.9827116,273,Q11953270,ca:Tuc d'Òrla,284
node,3920101285,la Faiada de Malpàs,,,,1698.8,42.3750351,0.7752239,235,Q8539444,ca:La Faiada de Malpàs,284
node,1241564734,Serra dels Lladres,,,,1601,42.1022754,1.7724088,293,,,284
node,11646993922,Arthanolatze Gaïna,,,,1531,43.0521718,-1.0403746,,Q12254211,,284
node,2197201513,Pic de Baxouillade,,,,2546,42.6611763,2.0023219,267,,,281
node,339066867,Alt del Cubil,,,,2358,42.526428,1.455284,281,Q21329471,ca:Pic Alt del Cubil,281
node,948794590,Punta Grosín,,,Punta Grosín,1421,42.615796,-0.5808789,,,,281
node,437301259,Adartza,,,,1250,43.113216,-1.3365085,,Q2824120,,281
node,2287097413,Pic de Campbieil,,,,3173,42.792033,0.1197083,271,Q3382361,,280
node,11648611960,Bastiments,,,,2881,42.4262168,2.2328606,276,Q3138291,ca:Pic de Bastiments,280
node,2063533114,Soum de Nére,,,,2394,42.9071217,0.0100579,,,,280
node,2267170995,,,,,2292,42.913214,-0.2307926,,,,280
node,4058894232,Pic Fourcat,,,,1929,42.7955583,1.8304851,,,,280
node,8270019202,Pech d'Auzou,,,,940,42.8515848,2.5022007,,,,280
node,5473751746,,,,,564.6,42.1434351,2.7031799,,,,279
node,623866309,Pico de Castanesa,,,,2858,42.571983,0.605631,272,Q24002552,,278
node,11646994180,Rocher du Courbas,,,,1233,42.7854318,1.7257346,,,,278
node,1241946020,Cima Negra,,,,2447,42.7987123,-0.6716253,,,,277
node,1241887572,Peña de Artiés,,,Peña de Artiés,1642,42.5722067,0.2871767,,,,277
node,1144639182,Okoro,,,,1259,43.0511214,-1.5055132,,Q12265057,,277
node,2135190276,Mailh Massibé,,,,1973,43.0282977,-0.5063297,,,,276
node,11646993892,Tourroc,,,,1541,42.9814789,0.5376818,,,,276
node,3940647815,Belabartsaitsa,,,,1281.63,42.8665969,-0.903346,,,,276
node,7450591663,Pettuberro,,,,1196,42.946241,-1.2423876,,Q112788085,eu:Pettuberro,275
node,4129669759,Cap de Confós,,,,1923,42.1621425,1.7961688,275,,,274
node,2314642791,lo Calbo,,,,2290.8,42.5984315,1.1795207,269,Q11933715,ca:Lo Calbo,273
node,1484817211,Cap de Pouy de Hourmigué,,,,1685,42.9191077,0.5966687,,,,273
node,12435289915,Cabanères,,,,753,43.0803527,1.2716565,,,,273
node,5331540507,Cabo Val,,,,1312,42.4087213,-0.9800592,,,,272
node,659541734,Mallo Pisón,,,Mallo Pisón,934,42.3507562,-0.7285589,,,,272
node,7006244729,Roc de Galliner,,,,1630.3,42.1980661,1.4109693,,Q17482077,ca:Roc de Galliner,271
node,6300033486,Pedró de Matamala,,,,1364.6,42.1754632,2.0971383,273,Q11940743,ca:Pedró de Matamala,271
node,11646994164,Pic du Bac,,,,1168,42.87133,2.0727172,,,,271
node,1681866046,Arre-Sourins,,,,2619,42.9264889,-0.3360222,,,,270
node,652132547,Pico Escuellas,,,Pico Escuellas,2507,42.7055526,-0.2164006,261,,,270
node,1133037846,Mendilatz,,,,1336.1,43.0207432,-1.2151988,,Q12263411,,270
node,626653572,Béout,,,,792,43.0859906,-0.0680737,,,,270
node,948495676,Oteitzoiana,,,,685,43.1498573,-1.6438547,,Q112784381,eu:Oteitzoiana,270
node,5374902053,Punta el Garién,,,,2718,42.6975485,0.058315,,,,269
node,8247362916,Tuca Pomero,,,Tuca Pomero,2710,42.6586389,0.6955809,263,Q11934710,ca:Malh dera Artiga,269
node,5487170504,Mirabail,,,,2617,42.6431794,1.6638594,265,,,269
node,11646994170,La Dent d'Orlu,,,,2222,42.6927584,1.9397344,,Q1397319,,269
node,4354450625,els Bonys,,,,2183.6,42.4637784,1.2827769,271,Q17481911,ca:Els Bonys,269
node,4241006668,Larrazpil,,,,1069,42.9480598,-1.8542625,,Q12261928,,269
node,732425776,Pic de Soques,,,,2716,42.8211427,-0.3626234,272,Q31629693,,268
node,734042472,Pic d'Ayré,,,,2416,42.8729654,0.0709876,,Q31652419,,268
node,12293883752,Monné Rouye,,,,1755,42.9512499,0.3190137,,,,268
node,5218236719,sommet de Mail Haut,,,,872,43.0787066,-0.7626023,,,,268
node,1414634577,Pic de Rulhe,,,,2785,42.6271653,1.7389471,239,Q129571981,,267
node,6205584185,,,,,2704,42.705923,-0.1854101,261,,,267
node,1681889133,Pic des Quintétes,,,,2603,42.8726951,-0.3585794,260,,,267
node,623866284,Cornadelo,,,,2445,42.5353532,0.6780805,265,,,267
node,1250038976,La Forquiella,,,La Forquiella,2169,42.4734492,0.268505,254,,,267
node,10889694110,Agulla de Ixeia,,,,2837,42.6345976,0.5081596,,,,266
node,5487200955,Puc de Pujeguère,,,,1367,42.7441428,2.1015193,,,,266
node,1039286855,Cap de la Lesse,,,,1187,42.8251052,1.6035715,,,,266
node,1129256042,Pic de Montaut,,,,1722,42.9737582,0.4250121,,,,265
node,956229810,Soum de la Pène,,,,1616,42.9985766,-0.1739464,,,,265
node,659540063,Ereta de la Viaña,,,,1477,42.3608994,-0.1466417,,,,265
node,2141557607,Puig de Bestracà,,,,1056.0,42.2942946,2.5155249,,Q17301133,ca:Puig de Bestracà,265
node,1482712103,Mont Pourcet,,,,710,43.0380293,0.7981789,,,,265
node,12406668423,Sommet de Souek,,,,623,43.1420168,-0.7449279,,,,265
node,577397839,Urdaburu,,,,599,43.2374911,-1.9005465,,Q3552262,,265
node,1092109785,Cilindro de Marboré,,Cylindre du Marboré,Cilindro de Marboré,3325,42.6847945,0.0238657,251,Q507593,an:Mallo de Marmorés,264
node,1250020230,Cerro Cecilio,,,Cerro Cecilio,1347,42.7089697,-0.8306599,,,,264
node,7099415622,Puig Cornador,,,,1229.2,42.1397381,2.1083437,,Q7259018,ca:Puig Cornador (les Llosses),264
node,989465054,Pico Royo,,Pic d'Aygues Tortes,Pico Royo,2873,42.6911573,0.4262878,256,,,263
node,34975894,Pic du Cabaliros,,,,2334,42.9300027,-0.1259194,,Q4206516,,263
node,732200003,Pic de Cézy,,,,2209,42.9227096,-0.4109074,,,,263
node,1115546576,Otsogorrigaina,,,,1923,42.9581443,-0.9200956,,Q12265379,,263
node,1110647001,Pic de Courbayran,,,,1759,42.8535158,0.9640392,,,,263
node,11646993770,Sarrat Naout,,,,1310,42.7497662,2.3524963,,,,263
node,988137875,Entecada,,Pic de l'Entecade,Entecada,2269.0,42.7180459,0.6969142,,Q17481923,ca:Era Entecada,262
node,732725476,Pic Mardas,,,,2188,42.9653817,-0.4987499,,,,262
node,1250039970,Punta Fulsa,,,,2866,42.6608177,0.2674274,227,Q24000975,,261
node,1250035442,Pico del Chinipro,,,,2795,42.6961706,0.1158208,264,,,261
node,1250027326,Peña de Otal,,,,2705,42.675902,-0.1608112,219,,,261
node,4019861683,Mehaltzu,,,,650,43.2062162,-1.0327438,,,,261
node,733939399,Grand Barbat,,,,2813,42.8651051,-0.1947991,234,Q3113513,,260
node,1249943348,Puigbò,,,,1137,42.1856438,2.2221236,,Q17483156,ca:Puigbò (Ripoll),260
node,5948002686,Pic Près de Puntussan,,,,2699,42.7259862,1.3635002,255,,,259
node,6203593256,Pic du Gallinas,,,,2624,42.4781495,2.2151916,257,,,259
node,11646993880,Mont Llaret,,,,2376,42.5773931,2.0301957,256,,,259
node,989447290,Pic de la Calabasse,,,,2210,42.8696104,0.8593455,,Q31649928,,259
node,3091586867,Peña Etxauri,,,Peña Etxauri,1136,42.8009883,-1.8460489,,Q112783088,eu:Etxauriko haitzak,259
node,577085803,Pic de Subenuix,,,,2950.2,42.5549864,0.9794615,232,Q7190469,ca:Pic de Subenuix,258
node,5489349289,Pic de Cestrede,,,,2947,42.8036192,-0.0706305,241,Q18214319,fr:Pic de Cestrède,258
node,2287097449,Pic Méchant,,,,2944,42.8016649,0.1536991,242,Q49753151,,258
node,1299322328,Pico de Gramatuero,,Grand Pic d'Arratille,Pico de Gramatuero,2900,42.7854795,-0.1783646,258,,,258
node,4210898126,Pala de Ip,,,,2779,42.7379277,-0.4532861,268,Q13049765,,258
node,652132556,Pico de Vila,,,,2582,42.7356256,-0.1701318,260,Q23990459,,258
node,339066770,Cap de la Devesa,,,,2133,42.4524918,1.373229,259,Q17481876,ca:Cap de la Devesa (les Valls de Valira),258
node,11646993898,Ibanteli,,,,698,43.2715016,-1.6203988,,Q31641730,,258
node,1962559862,Penyes Altes de Moixeró,,,,2276,42.3063092,1.8424843,254,Q7165403,ca:Penyes Altes de Moixeró,257
node,3940651899,Armotoa,,,,1375,42.8834079,-0.9143643,,Q112780457,eu:Armotoa,257
node,801342757,Soum de Marraut,,,,2710,42.831482,0.0585134,244,,,256
node,825982566,Pic du Piau,,,,2696,42.7635827,0.1472304,260,,,256
node,1241942463,Pueyo Segarra,,,,1994,42.8044543,-0.7970447,,,,256
node,3735749843,Pic du Far,,,,1924,42.7593998,1.4491979,,,,256
node,5473885914,Sant Quiri,,,,1502.5,42.3052409,1.3013222,253,Q113028682,,256
node,3946635954,Puy Daras,,,Puy Daras,1239,42.5038626,-0.9131815,,,,256
node,11646993915,Erretzu,,,,700,43.1228701,-0.8288811,,,,256
node,1102581003,Tossau de Mar,,,,2749.9,42.6303004,0.8289666,245,Q37853329,,255
node,669919775,Pic de Labigouer,,,,2175,42.8808409,-0.6203702,,,,255
node,2463288736,Le Cos,,,,1015,42.8579792,1.1842432,,,,255
node,901155863,Madeloc,,,,670,42.4902112,3.0749037,248,,,255
node,590706409,Garmo Negro,,,,3064,42.7716445,-0.2641782,246,,,254
node,988137858,Pic de la Mine,,,,2704,42.6939374,0.6480506,,Q3382407,,254
node,494455720,Pico de la Espada,,,,2832,42.6932141,0.2638199,244,,,253
node,576091653,Pic de Ventolau,,,,2851.5,42.6906524,1.1904285,245,Q11941513,ca:Pic de Ventolau,252
node,5102544116,Tossal de Vilella,,,,1525.6,42.0914074,1.7222543,246,Q11952734,ca:Tossal de Vilella,252
node,11646993790,Mont Capell,,,,1194,42.3897312,2.651351,,Q31074323,ca:Mont Capell,252
node,3294279100,Baratxueta,,,,1147.50,42.9583636,-1.5613413,,Q66438512,,252
node,9651974960,Le Taus,,,,1069,42.9006669,1.277819,,,,252
node,12923389117,Merina,,,,779,42.0112824,-1.9300141,,,,252
node,6197624321,Puig dels Tres Vents,,,,2731,42.4921111,2.4686112,222,Q7838888,ca:Puig_de_Tres_Vents,251
node,2185499000,Tuc de la Llança,,,,2658.7,42.684072,0.9905228,240,Q17482336,ca:Tuc de la Llança,251
node,3808122386,Le Haboura,,,,1628,43.0070323,0.2261467,,,,251
node,6015846100,Sommet de Crouzille,,,,1153,42.7948315,1.7056332,,,,251
node,948493487,Txaruta,,,,1080.80,43.0617701,-1.6603818,,Q6154191,,251
node,948495471,Lakarri,,,,1046.10,42.8696987,-1.5036005,,Q115504912,,251
node,7552075762,,,,,2715,42.6976993,0.057301,,,,250
node,1102580929,Tuc deth Pòrt de Vielha,,,,2605.6,42.6418648,0.7655286,227,Q17483068,ca:Tuc deth Pòrt de Vielha,250
node,1250019098,Pico del Cuezo,,,Pico del Cuezo,2034,42.6526975,0.1878117,,,,250
node,4147619799,Eskintza,,,,740,42.6518156,-1.9192565,,Q112783031,eu:Eskintza,250
node,617402174,Tuc de Hosets,,,,710,43.0304476,0.7583713,,,,250
node,11951607451,Tuca Feixán o Pico de la Tallada,,,Tuca Feixán o Pico de la Tallada,2955,42.616767,0.7237043,207,,,249
node,5489388426,Soum de Male,,,,2797,42.7857663,-0.0526219,242,,,249
node,1896334132,Pico de Petrechema,,Pic d'Ansabère,Pico de Petrechema,2371,42.9029735,-0.7326009,,Q3382346,,249
node,4155407519,Puig de Serreïnes,,,,1686,42.2622054,1.4349201,249,Q17301293,ca:Puig de Serreïnes,249
node,8173401629,Pic de la Quère,,,,1141,42.9000868,1.1569491,,,,249
node,366540873,Pic de Serrère,,Pic de Serrère,,2912,42.6255422,1.6025216,222,Q11941547,ca:Pic de la Serrera,248
node,1664640509,Pic des Quatre Termes,,,,2724,42.8869128,0.1753833,259,,,248
node,9116326148,Pointe Jean Santé,,,,2506,42.8410071,-0.4333817,,,,248
node,1133018204,Mendizar,,,,1318.49,43.0180081,-1.1655566,,Q12263429,,248
node,11934678572,Arxuria,,,,758,43.2557235,-1.569582,,,,248
node,1241922636,Pico el Borón,,,,1327,42.2555089,-0.2870515,,,,247
node,4132893166,Ekoiengo Gaina,,,,924,42.741297,-1.8078465,,Q112783691,eu:Ekoiengo gaina,247
node,733939395,Pic de la Sède,,,,2976,42.7861303,-0.1203085,242,,,246
node,3014258689,Montsent de Pallars,,,,2883.1,42.490117,1.0244168,245,Q6906569,ca:Montsent de Pallars,246
node,1091885617,Tuc de Parros,,,,2731.3,42.76778,0.9330471,239,Q17482924,ca:Tuc de Parros,246
node,3983621831,,,,,1571,42.3431777,0.8562557,236,,,246
node,5489695565,Tuc de la Guillerou,,,,1398,42.7563666,2.1960076,,,,246
node,1886472036,el Faig Gros,,,,1192.8,42.2937529,2.6205372,,,,246
node,11646993919,Le Chapeau de Gendarme,,Le Chapeau de Gendarme,,572,43.0863026,-0.8790308,,Q2956498,eu:Lexantzümendi,246
node,577086102,Pic de la Mainera,,,,2909.3,42.5244805,1.0271659,241,Q11941533,ca:Pic de la Mainera,245
node,1692204548,Pic de Pomebrunet,,,,2569,42.811719,1.0935533,233,,,245
node,1250021372,Pico de la Magdalena,,,Pico de la Magdalena,2283,42.7326967,-0.5680687,,,,245
node,6835214680,Roca Gran,,,,2088.3,42.3162854,1.7116007,,Q11930747,ca:La Roca Gran,245
node,11646993884,Pic de Picarre,,,,1368,42.9933086,0.4801907,,,,245
node,948495627,San Pedro,,,,888.90,42.5029576,-1.3851148,,Q115509439,,245
node,841977089,Pic d'Arguibelle,,,,795,43.0852697,-0.7910198,,,,245
node,11646993825,Força Réal,,,,507,42.72703,2.7002702,,Q3078719,ca:Mont Ner,245
node,1250023524,Pic Blanc,,,,2826,42.7039831,0.0706296,228,,,244
node,1682122613,Pic de Hourette,,,,2383,42.8392014,-0.5034546,,,,244
node,1980819266,Pic de la Calma,,,,2206,42.5348771,2.016127,,Q31649821,,244
node,11646993958,Pic des Vautours,,Pic des Vautours,,1072,43.1062834,-0.9531946,,,,244
node,13201114171,Puig Falgós,,,,1362.9,42.2025102,2.3403181,,,,243
node,1250018568,Cerro Larraín,,,Cerro Larraín,1311,42.4833345,-0.5445786,,,,243
node,11646993942,Gatarre,,,,761,43.1174261,-1.1794171,,,,243
node,670246576,Pic de Brau,,,,654,43.0102053,2.2344714,,,,243
node,734042477,Pène Det Pouri,,,,2587,42.9210568,0.0679398,237,,,242
node,3217369318,,,,,504,42.8313507,2.7714266,,,,242
node,592395956,Peña Sabocos,,,,2755,42.6792239,-0.2519131,213,Q11940819,,241
node,732266062,Le Courouaou,,,,2691,42.8709489,-0.2993483,200,,,241
node,6221702307,Puig del Pam,,,,2470,42.6048468,2.0310148,239,Q31635039,,241
node,1959592528,Pic d'Escobes,,,,2781,42.6092126,1.7356452,,Q18005600,ca:Pic d'Escobes,240
node,1250031031,Ralla de Alano,,,Ralla de Alano,2162,42.8434372,-0.7975922,,,,240
node,2150175481,Milobre de Massac,,,,907,42.9169818,2.5246745,,,,240
node,1250032177,Pico de la Garganta de Borau,,,Pico de la Garganta de Borau,2570,42.7559855,-0.5529709,239,,,239
node,790484281,Hauzkoa,,,,1268,43.1169728,-1.068609,,Q3128666,,239
node,737642501,Roc Marot,,,,1002,42.937887,1.7601408,,,,239
node,8734634634,Pic d’Esquine d’Aze,,,,2706,42.6284159,1.9020909,,,,238
node,1304117453,Pic de Becero,,,,2582,42.6625093,1.3347362,235,Q17481333,ca:Pic de Becero,238
node,1089570443,Cap des Hittes,,,,2368,42.7626061,0.4622276,,,,238
node,6294605073,Setcomelles,,,,1517.9,42.1750057,1.1851901,239,Q11949499,ca:Setcomelles,238
node,3125976599,Estadella,,,,1473.9,42.1319549,1.1492549,224,Q11920823,ca:Estadella,238
node,4210479438,Larrondoa,,,,1188,42.7968729,-1.0617188,,,,238
node,11646993935,Néthé,,,,764,43.1716309,-1.0948864,,,,238
node,2532255172,Miramont,,,,645,43.1260096,0.0088243,,,,238
node,988137856,Guargas Blancas,,Pic des Gourgs Blancs,Guargas Blancas,3129,42.700022,0.4777227,221,Q11701147,an:Tuca de Gorgs Bllancs,237
node,9116326153,Petit Pic du Midi d’Ossau,,,,2807,42.8418966,-0.4409801,,,,237
node,1875886905,els Munts,,,,1057.1,42.0787446,2.1532832,,Q5367368,ca:Els Munts (Sant Agustí de Lluçanès),237
node,579973382,Pic de Calm Colomer,,,,2863,42.4924406,1.7299782,224,Q63808439,ca:Pic de Calm Colomer,236
node,2331583179,Pic Souriguère,,,,1589,43.0178007,-0.7147869,,,,236
node,2134030530,Puig Ou,,,,1299.5,42.2841075,2.4277851,239,Q11943413,ca:Puig Ou,236
node,1250027591,Pico Llena del Bozo,,,Pico Llena del Bozo,2566,42.7699201,-0.5841925,237,,,235
node,989266175,Sommet d'Antenac,,,,1990,42.8564933,0.5649758,,,,235
node,11646993889,Pic de Cau,,,,1080,43.0004198,0.5536968,,,,235
node,3328440039,Sanmigelbizkar,,,,832,42.7495319,-1.3999775,,Q112783460,eu:Sanmigelbizkar,235
node,6115481954,La Atalaya,,,,743,42.0179851,-1.8596145,,,,235
node,43658075,Pic de Montaud,,Pic de Montaud,,2494.9,42.7503425,1.132811,,Q11941477,ca:Pic de Montalt,234
node,5473905172,Tossal de San Salvador,,,,1508,42.3577346,0.7262339,,,,234
node,948496809,Arañotz,,,,840.00,42.9871272,-1.6607172,,Q112779207,eu:Arañotz,234
node,1241977418,Tozal de Bolturina,,,,788,42.1633612,0.2499281,,,,234
node,1091885476,Pic d'Arrouyette - Pic d'Estos,,,,2803,42.7507479,0.3838418,,,,233
node,7797455939,Puntal de Bachaco,,,,2317,42.6130488,0.206218,,,,233
node,2188365875,Bony de les Neres,,,,2211,42.546288,1.562015,,Q21330038,,233
node,736138861,Pène Haute,,,,1451,43.0003572,0.4162981,,,,233
node,3940650615,San Zolo,,,,1281,42.8740118,-0.8942431,,,,233
node,1860309226,Bellmunt,,,,1248,42.1015207,2.2937103,237,Q4884080,ca:Bellmunt (Sant Pere de Torelló),233
node,948491810,Argible,,,,1199.80,42.787713,-0.9810705,,Q112780365,eu:Argible,233
node,4138948222,Bagadigorri,,,,1171,42.6911044,-1.6065094,,,,233
node,1250031987,Pico de Salarons o Gallinero,,,,2746,42.6695346,-0.0588105,236,,,232
node,2356211621,,,,,1484,42.5439232,0.068431,,,,232
node,12512539612,Soratxipi,,,,1069,43.0675421,-1.7296272,,Q112784877,eu:Soratxipi,232
node,11646993951,Ahargo,,,,609,43.2027288,-0.7833928,,Q56649688,,232
node,1250025913,Pico Eriste Gran,,,Pico Eriste Gran,3056,42.6250668,0.4092338,230,,,231
node,3255721761,Pic de Labas,,,,2946,42.7824809,-0.108251,225,,,230
node,733939396,Pic d'Estibe Aute,,,,2816,42.8062715,-0.1234507,231,,,230
node,1250026352,Pico de Barrosa,,,,2762,42.7178662,0.1701249,203,,,230
node,1250038696,Idoia,,,,1754,42.817263,-0.8538794,,,,230
node,11646993787,Serre de l'Artigue del Baurien,,,,566,42.8042974,2.5228363,,,,230
node,1660223288,Alt del Griu,,,,2875,42.5251435,1.6512392,216,Q21329776,ca:Alt del Griu,229
node,339066841,Bony de Trescul,,,,2405.8,42.4979473,1.3991095,249,Q17483761,ca:Bony de Trescul,229
node,4388179227,Soum Couy,,,,2315,42.9565134,-0.7203911,,,,229
node,1870016439,el Ferran,,,,985,42.2948872,2.5724572,,Q11918314,ca:El Ferran (Montagut i Oix),229
node,5796856670,Zarrantzmendi,,,,883.72,42.9415566,-1.7767011,,Q112785552,eu:Zarranzmendi,229
node,9399891468,Mont Fourcat,,,,2001,42.8559543,1.7169745,,Q31644116,,228
node,3708918166,Tuc deth Plan dera Sèrra,,Tuc du Plan de la Serre,Tuc deth Plan dera Sèrra,1977.1,42.7549188,0.6391487,231,Q11953339,ca:Tuc deth Plan dera Sèrra,228
node,12400695870,Tuc de Mongalas,,,,1327,42.8625651,1.2974911,,,,228
node,2024572482,,,,,873,43.0618555,0.0046505,,,,228
node,575756366,Pic de Mariolo,,,,2856.7,42.5307206,0.9576317,279,Q17482856,ca:Pic de Nariolo,227
node,6203277509,Pic de Bastan d’Aulon,,,,2721,42.8623702,0.217728,211,,,227
node,5064537739,Pic de Bizkarzé,,Pic de Bizkarzé,,1656,43.0041027,-1.0444082,,Q3382352,eu:Bizkarze,227
node,11646994150,Montagne de Crabixa,,,,1595,42.7391466,2.2646639,,,,227
node,733817077,Pic Lariste,,,,2168,42.8846014,-0.6787452,,,,226
node,3688910136,Puig Estela,,,,2013,42.2842952,2.2540099,221,Q7259023,ca:Puig Estela (Ogassa/Pardines),226
node,989447291,Le Puech,,,,1669,42.9172363,0.8278688,,,,226
node,5309919959,Le Monné,,,,1259,43.0353009,0.1385175,,,,226
node,659541732,El Firé,,,,934,42.3533255,-0.7303509,,,,226
node,990880994,Elosta,,,,926.22,43.035781,-1.9594011,,Q112782822,eu:Elosta,226
node,948495205,Legate,,,,869.80,43.1739331,-1.5674596,,Q12262061,,226
node,1304133675,Pic de Baborte,,,,2933,42.6574619,1.3670785,217,Q17481289,ca:Pic de Baborte,225
node,6695660101,Malh de Bolard,,,,2753.2,42.8058071,0.9604458,,Q109044054,fr:Mail de Bulard,225
node,1678253894,Comabona,,,,2548.6,42.2836926,1.726295,220,Q5150472,ca:Comabona,225
node,12400906452,Pic de la Socarrada,,,,2329,42.5674017,2.0536761,,,,225
node,3333747512,Txorrotxarria,,,,1522,42.861335,-1.0028,,Q112785063,eu:Txorrotxarria,225
node,1249959425,Puigsacalm,,,,1514,42.1251703,2.387918,223,Q7259038,ca:Puigsacalm,225
node,4065465006,Borrokoxko,,,,1395,42.8526515,-1.1960005,,Q112786679,eu:Borrokoxko,225
node,948494370,Peña,,,,1068.60,42.4983118,-1.286324,,Q115507625,,225
node,11646994064,,,,,714,43.0568872,0.6151374,,,,225
node,8641688502,Pic de Males Ores,,,,1728,43.0410791,-0.3472361,,,,224
node,659540107,Monte de San Loriente,,,Monte de San Loriente,1639,42.5055671,-0.2070023,,,,224
node,11646994174,Pic de Baychon,,,,1416,42.8065701,1.6151386,,,,224
node,5484114903,Serrat del Colomer,,,,1204,42.2303365,2.3201998,,,,224
node,3337470414,Beiegu,,,,1193,42.8697208,-1.1244859,,Q112782164,eu:Beiegu,224
node,659541739,Castiel Mayor,,,,1110,42.4920226,-0.7969646,,,,224
node,3294373592,Eltxumendi,,,,851,42.8822548,-1.7269822,,Q112782872,eu:Eltxumendi,224
node,277377889,Casamanya Nord,,,,2757,42.5873712,1.570299,207,,,223
node,1249949441,Puig de Castelltallat,,,,1280,42.218558,2.343333,,Q17481636,ca:Puig de Castelltallat,223
node,3290101415,Lauriñaga,,,,1279,43.0540811,-1.342739,,,,223
node,1250016507,Pala de Montinier,,,,2593,42.62196,0.1615513,219,,,222
node,3996878153,Tuc d'Auba,,,,2571,42.6674545,0.7324253,215,,,222
node,3406883859,Montanha d'Uishèra,,,,2339.2,42.7656097,0.7327991,220,Q11937397,ca:Montanha d'Uishèra,222
node,1250039783,Tozal del Mallo,,,,2254,42.6620926,-0.0744195,,Q6151319,,222
node,1938592521,Sobrepuny,,,,1655,42.1677176,1.9106956,,Q17483615,ca:Sobrepuny,222
node,11784689216,Tozal del Puyol,,,,1236,42.2162959,0.6241937,,,,222
node,7523879316,Tuca Blanca de Pomèro,,,,2697.1,42.6685939,0.6797267,253,Q11953341,ca:Tuca Blanca de Pomèro,221
node,1682153503,Pic la Bèque de Sesques,,,,2371,42.9112847,-0.4765703,,,,221
node,11456196467,Mendigaña,,,,1106,42.8271625,-1.274315,,,,221
node,1250019278,Tuca des Corbets,,,Tuca des Corbets,2901,42.6381638,0.4754009,216,,,220
node,2475150721,Pic Arrouy,,,,2785,42.849215,-0.2005573,,,,220
node,6835281789,Tossal de Badés,,,,1818.2,42.3237462,1.6249949,,,,220
node,11646994177,Castel Ségui,,,,1229,42.9710411,1.0368925,,,,220
node,3446381369,Punta Mallafré,,,,952,42.3536767,-0.7301575,,,,220
node,577180419,Tuc des Estanhets,,,,2886.9,42.619254,0.8069927,201,Q11953331,ca:Tuc des Estanhets,219
node,3807551826,Pic d'Aulon,,,,2738,42.8745662,0.2443716,223,,,219
node,2497548519,Plo del naou,,,,1754,42.9194582,0.3135999,,,,219
node,6173517591,Cap del Pla del Prat,,,,1316,42.0800778,2.4032401,218,,,219
node,948769309,Selva,,,,1158.00,42.4450632,-1.1185045,,,,219
node,1304112242,Pic de Qüenca,,,,2639.0,42.6998131,1.0543057,210,Q11941496,ca:Pic de Qüenca,218
node,2791308192,Legin,,,,781,42.756465,-1.425055,,,,218
node,488467098,Pic de les Nou Fonts,,,,2861,42.4248996,2.1676294,210,Q1269228,ca:Pic de Nou Fonts,217
node,2295058527,Pic de Thoumasset,,,,2741,42.653962,1.582887,,,,217
node,1250023618,Pico L'ibón,,,,2482,42.7769826,-0.595677,,,,217
node,1250033452,Pico de Yésero,,,,2005,42.5981247,-0.2305502,,,,217
node,1959427102,Puig de Sant Amand,,,,1851,42.2653493,2.2073144,214,Q7419073,ca:Puig de Sant Amand,216
node,3332368900,Arburua,,,,1037,42.8003354,-1.1065628,,Q25476049,,216
node,745562325,Buztanzelai,,Buztanzelhay,Buztanzelai,1029,43.1943265,-1.3866445,,,,216
node,2776949611,Pic de Bastan,,,,2715,42.8659574,0.2007309,206,Q3382348,fr:Pic de Bastan,214
node,7001227226,Pic de Lourdes,,,,2647,42.7385081,-0.1176881,,Q31638647,,214
node,5487103064,Tosse de Pédourrés,,,,2468,42.61807,1.780554,,Q129571736,,214
node,1250021522,Chipeta Alto,,,,2175,42.8544131,-0.7279798,,,,214
node,2578788963,Pic de Pioulou,,,,2166,42.820514,1.478624,,,,214
node,988036308,Casque du Lhéris,,,,1595,43.0146292,0.2311825,,,,214
node,5701634287,Montagne de Rié,,,,1130,42.9111919,0.6783144,,,,214
node,733817073,Le Dec de Lhurs,,,,2176,42.9154203,-0.701921,,,,213
node,1699960790,Tuc de la Lane,,,,1334,42.8004485,1.3085524,,,,213
node,2441526553,Sant Patllari,,,,645.9,42.1120847,2.7117297,,Q11947288,ca:Sant Patllari,213
node,5859199520,Pui de la Bonaigua,,,,2778.1,42.6271939,1.019478,214,Q17481391,ca:Pui de la Bonaigua,212
node,3180772895,Le Salon de Ger,,,,2611,42.9375447,-0.3544538,,,,212
node,1329675219,Pic de Séron,,,,2489,42.7414209,1.3267826,,Q48758172,,212
node,9000946331,Pic de la Camisette,,,,2426,42.6808263,2.0024856,,,,212
node,11646993821,Serra d'Escales,,,,1724,42.6998941,2.2973032,,,,212
node,1249961011,Cap dels Banyadors,,,,1429,42.2262726,1.912502,218,Q17481299,ca:Cap dels Banyadors,212
node,4308379242,Puig Miró,,,,1307,42.1678118,2.0277939,211,Q17482622,ca:Puig Miró,212
node,948494256,Irumuga,,,,837.50,42.9845195,-1.7904277,,Q115504279,,212
node,590706383,Punta Escarra,,,Punta Escarra,2751,42.7324081,-0.4386589,,,,211
node,1778545917,Pic de Gerbe,,,,1901,43.0083987,-0.459631,,,,211
node,1250016418,Cerro Comarzosa,,,Cerro Comarzosa,1184,42.3985273,0.3324314,,,,211
node,12407611213,Pic de Raco Petit,,,,2785,42.4400637,2.1859597,,,,210
node,732045877,Pic de Bergon,,,,2148,42.9690186,-0.5287533,,,,210
node,659540217,Matapaños,,,Matapaños,1532,42.2651769,-0.330534,,,,210
node,652132496,Montaña del Verde,,,Montaña del Verde,2295,42.6979137,-0.249145,,,,209
node,6188498260,Amariedo,,,,1790,42.3417495,0.6395401,209,Q11905264,ca:Amariedo,209
node,13372227858,San Martín,,,,1168,42.2379053,0.278023,,,,209
node,2475149333,Pic de Bernat Barrau,,,,2793,42.8385124,-0.216004,,,,208
node,7728089195,Pica Cerví de Durro,,,,2656.4,42.461181,0.8665228,206,Q17301003,ca:Pica Cerví de Durro,208
node,5473855594,Serra de Pratformiu,,,,1679,42.1694594,1.6294499,200,,,208
node,3946637442,La Planisora,,,,1219,42.4836051,-0.8962018,,,,208
node,5473785225,,,,,721,42.2753478,2.5588595,,,,208
node,11646993913,Muskildi,,,,704,43.1856552,-1.0049993,,,,208
node,989447293,Pic de l'Har,,,,2424,42.8347803,0.8954148,,,,207
node,788356319,Pic Chardéca,,Pic Chardéca,,1893,42.9638937,-0.9057634,,,,207
node,659540237,Peña de Gratal,,,Peña de Gratal,1567,42.2842742,-0.4805875,,,,207
node,11304633548,Punta Basuala,,,,974,42.407334,-0.6014557,,,,207
node,7756856498,Montcoustan,,,,917,42.991168,1.5126685,,,,207
node,11646993960,Pagaburu,,,,543,43.2245237,-1.1546464,,,,206
node,652132476,Demeure Soulé,,,,2931,42.8344693,-0.2760935,,,,205
node,5487116967,Puig de Font Viva,,,,2673,42.5688633,1.8802043,205,Q64025166,ca:Puig de Fontviva,205
node,948494411,Elixato,,,,920.80,42.8895395,-1.5825841,,Q112782705,eu:Elixato,205
node,4665844159,Le Pech,,,,632,42.8987771,2.2106436,,,,205
node,4676432389,Miramont,,,,507,43.1649647,2.507206,,,,205
node,2641821626,Puig Sobirà Oriental,,,,1937.6,42.1340737,1.4976369,202,Q17483614,ca:Puig Sobirà (Odèn),204
node,666644435,Soum de Mont Né,,,,1387,43.0569202,-0.132623,,,,204
node,1997748368,Puig de Pradets,,,,1175.5,42.4740207,2.9896863,203,Q11943614,ca:Puig de Pradets,204
node,669987021,La Pique,,,,1046.4,42.8466017,1.6260454,,,,204
node,2675718879,Le Billare,,,,2309,42.9302781,-0.6908331,,,,203
node,4210926812,Peña Petruso,,,,2198,42.6694701,-0.3910254,,,,203
node,11646994173,Pic de la Bède,,,,1685,42.759445,1.5342053,,,,203
node,2370276229,Urkieta,,,,865,43.0702917,-1.9934609,,Q112785266,eu:Urkieta,203
node,7552075767,,,,,2843,42.6965802,0.0503509,,,,202
node,4307142940,,,,,2624,42.6826158,1.1637285,,,,202
node,4329805607,Comodoto,,,,2354,42.6747975,0.1294321,,Q24002178,,202
node,3296025323,Paquiza Linzola,,,,2104,42.9138568,-0.7761044,,Q26232281,an:Paquiza Linzola,202
node,3129718657,La Frau,,,,1925,42.8398963,1.8388234,,,,202
node,575712971,Roques del Bruc,,,,1400,42.2576154,1.999057,208,Q11946264,ca:Roques del Bruc,202
node,6679927433,Saroberri,,,,1338,43.0583759,-1.0895172,,,,202
node,1250021836,Cerro Artolés,,,Cerro Artolés,1256,42.7047414,-0.7611893,,,,202
node,2059697499,Muntanya de Nargó,,,,1213.0,42.1916704,1.2965445,,Q17482835,ca:Muntanya de Nargó,202
node,12398235039,Stiouère,,,,821,43.0442264,0.2701047,,,,202
node,11646993776,Sarrat d'Espinets,,,,801,42.7216828,2.522256,,,,202
node,3441105312,Cerro San Cristobal,,,Cerro San Cristobal,1173,42.3504729,-0.7103089,,,,201
node,910540213,Oilarandoi,,,,933,43.1531047,-1.3344137,,Q12265034,,201
node,3699130127,Iguste,,,,884,42.7024977,-1.8991525,,Q112787077,eu:Iguste,201
node,1304121893,Tuc de Canejan,,,,2656.5,42.8200195,0.8635891,201,Q11953275,,200
node,11406979713,Tuc de la Core de Léat,,,,1704,42.8581104,0.9119732,,,,200
node,2364440769,Peña de Sin,,,,1639,42.5711209,0.2596975,,,,200
node,11646994161,,,,,1330,42.7909911,2.1737802,,,,200
node,2406980406,Serrat del Cogull,,,,1255,42.3726766,2.584177,,,,200
node,2152034042,La Devèze,,,,827,43.0029448,2.4470316,,,,200
node,1867528828,Pic de Parraouis,,,,2934,42.7432474,0.36734,,,,199
node,733817080,Pic d'Aillary,,,,2215,42.8426332,-0.624688,,,,199
node,11646994155,Pic d’Ourtiset,,,,1934,42.7695226,2.0242589,,Q31635185,,199
node,948493368,Ulizar,,,,868.20,43.0847716,-1.9694685,,Q112785208,eu:Ulizar,199
node,948492126,Nasa Alta,,,,629.20,42.1386669,-1.4004109,,Q23991279,,199
node,7552075764,,,,,2685,42.697992,0.0563665,,,,198
node,733939401,Pic de Gaube,,,,2377,42.8380297,-0.1522154,,,,198
node,4315506467,Peña Blanca,,,,2365,42.8041412,-0.4531478,,,,198
node,3278300098,Pech de Guilloumet,,,,631,42.9811602,2.6660491,,,,198
node,5003256549,Cap Dera Baquo Oriental,,,Cap Dera Baquo Oriental,3104,42.6931007,0.4927623,,,,197
node,8734852832,Pic de Cimet,,,,2423,42.6626198,1.9077259,,,,197
node,1167195993,Abodi,,,,1532.92,42.9517166,-1.0543201,,Q2821682,,197
node,2916932927,Malkaxko,,,,1238,42.8186953,-1.9916123,,,,197
node,11646994152,Pic du Minier,,,,1108,42.8854336,2.0316323,,,,197
node,2425714279,Martanyà,,,,1031.3,42.3096301,2.6067558,,Q11935659,ca:Martanyà,197
node,12512539611,Bianditz,,,,843,43.2468043,-1.7906675,,Q8247449,,197
node,623508746,Pico de Estós o Tuca del Dalliú,,,Pico de Estós o Tuca del Dalliú,2531,42.6566767,0.5559256,,,,196
node,659540132,Cabezo de Guara,,,Cabezo de Guara,1871,42.2890378,-0.1446247,,,,196
node,1241969553,Ribarroya,,,,1032,42.1510571,0.6224639,,,,196
node,1184601893,Cap du Teil,,,,710,43.0583586,0.6568224,,,,196
node,2016701435,Tuc de Montcalivert,,,,677,43.0138593,1.1659609,,,,196
node,11545701051,Soum d'Aulis,,,,577,43.1373194,-0.6711986,,,,196
